id,link,name,status,lat,lng,year,first,area,population
1,Александровка (Аннинский район),Александровка,Посёлок,51.33389,40.85194,,,,120
2,Анна (Воронежская область),Анна,Посёлок городского типа,51.48333,40.41667,в 1698 году,1698,,16064
3,Артюшкино (Воронежская область),Артюшкино,Село,51.3462333,40.9594778,XVIII век,,,500
4,Архангельское (Аннинский район),Архангельское,Село,51.45028,40.93222,XVIII век,,,2165
5,Бабинка (Воронежская область),Бабинка,Посёлок,51.3354278,41.03445,,,,18
6,Берёзовка (Аннинский район),Берёзовка,Село,51.315,40.20194,,,,936
7,Бобяково,Бобяково,Село,51.5152333,40.8067111,,,,85
8,Большая Алексеевка (Воронежская область),Большая Алексеевка,Село,51.543741,40.777863,,,,234
9,Большие Ясырки (Аннинский район),Большие Ясырки,Село,51.6207528,40.4791417,1686,,,646
10,Бродовое (Воронежская область),Бродовое,Село,51.48833,40.49528,1780,,,1228
11,Васильевка (Аннинский район),Васильевка,Село,51.48611,40.19889,,,,586
12,Верхняя Тойда,Верхняя Тойда,Село,51.421986,40.304829,,,,836
13,Гусевка (Воронежская область),Гусевка,Посёлок,51.4375111,41.1027889,,,,93
14,Гусевка 2-я,Гусевка 2-я,Посёлок,51.34861,40.84222,,,,179
15,Денисовка (Воронежская область),Денисовка,Посёлок,51.6147,40.4286278,,,,1
16,Дерябкино (Воронежская область),Дерябкино,Село,51.5273639,40.9371222,,,,489
17,Дмитровский (Воронежская область),Дмитровский,Посёлок,51.4376194,40.3964222,,,,21
18,Дубровка (Аннинский район),Дубровка,Посёлок,51.3927028,40.7979333,,,,116
19,Желанное (Воронежская область),Желанное,Село,51.53667,40.4275,,,,301
20,Загорщино,Загорщино,Село,51.2703556,40.344222,,,,72
21,Зеленёвка,Зеленёвка,Посёлок,51.44583,40.12694,,,,12
22,Козловский (Аннинский район),Козловский,Посёлок,51.3173583,40.2577722,,,,20
23,Красный (Аннинский район),Красный,Посёлок,51.4878694,41.1154833,,,,32
24,Красный Лог (Аннинский район),Красный Лог,Посёлок,51.5275861,41.0747028,,,,242
25,Кругловский,Кругловский,Посёлок,51.424056,41.0601917,,,,145
26,Круглоподпольное,Круглоподпольное,Поселок,51.5327583,40.3337333,,,,440
27,Кушлев,Кушлев,Посёлок,51.3907694,40.504333,,,3 км²,45
28,Левашовка (Воронежская область),Левашовка,Село,51.4813389,40.33545,,,,295
29,Мосоловка (Воронежская область),Мосоловка,Село,51.56945,40.4299389,,1698,,375
30,Моховое (Аннинский район),Моховое,Село,51.42083,40.60083,,1810,,357
31,Нащёкино (Воронежская область),Нащёкино,Село,51.39917,40.13806,,1810,,529
32,"Николаевка (посёлок, Аннинский район)",Николаевка,Посёлок,51.29917,40.84972,,,,37
33,"Николаевка (село, Аннинский район)",Николаевка,Село,51.51667,40.26667,,,,1188
34,Никольское (Аннинский район),Никольское,Село,51.4687111,40.9595611,,,,1159
35,Новая Жизнь (Аннинский район),Новая Жизнь,Посёлок,51.4077639,40.7456472,,,,555
36,Новомакаровский,Новомакаровский,Посёлок,51.4265,41.1159667,,,,13
37,Новонадеждинский,Новонадеждинский,Поселок,51.4444528,40.2194056,,,,707
38,Новоникольский (Аннинский район),Новоникольский,Посёлок,51.2846083,40.8745861,,,,6
39,Новый Курлак,Новый Курлак,Село,51.44056,40.5525,1740,,,585
40,Островки (Воронежская область),Островки,Село,51.4238417,40.9224833,,,,727
41,Панкратовский (Воронежская область),Панкратовский,Посёлок,51.412275,40.3830722,,,,20
42,Первомайское (Аннинский район),Первомайское,Посёлок,51.5720361,40.380425,,,,59
43,Петровка (Аннинский район),Петровка,Посёлок,51.2922722,40.8491056,,,,81
44,Посёлок Комсомольского отделения совхоза «Красное Знамя»,Комсомольского отделения совхоза «Красное Знамя»,Посёлок,51.57444,40.60389,,,,91
45,Посёлок Октябрьского отделения совхоза «Пугачёвский»,Октябрьского отделения совхоза «Пугачёвский»,Посёлок,51.57583,40.71639,,,,74
46,Посёлок Первомайского отделения совхоза «Пугачёвский»,Первомайского отделения совхоза «Пугачёвский»,Посёлок,51.54194,40.68333,,,,51
47,Посёлок отделения «2-я Пятилетка» совхоза «Красное Знамя»,отделения «2-я Пятилетка»совхоза «Красное Знамя»,Посёлок,51.60139,40.7075,,,,53
48,Прогресс (Воронежская область),Прогресс,Посёлок,51.59583,40.49167,,,,125
49,Рамонье,Рамонье,Село,51.4022667,41.1069833,,,,864
50,Романовка (Аннинский район),Романовка,Посёлок,51.36056,40.12694,,,,115
51,Рубашевка,Рубашевка,Посёлок,51.61625,40.6466333,,,,451
52,Сабуровка (Воронежская область),Сабуровка,Село,51.5840139,40.3697806,,,,129
53,Садовое (Воронежская область),Садовое,Село,51.53861,40.48583,конец XVII века,,,4064
54,Светлый Путь (Воронежская область),Светлый Путь,Посёлок,51.4043728,40.4845547,,,,0
55,Сергеевка (Аннинский район),Сергеевка,Посёлок,51.301325,40.8702361,,,,55
56,Софьинка (Аннинский район),Софьинка,Село,51.4959139,40.2842944,,,,191
57,Старая Тойда,Старая Тойда,Село,51.374111,40.4204528,1701,1697,,679
58,Старая Чигла,Старая Чигла,Село,51.27972,40.37806,1698,1698,,792
59,Старый Курлак,Старый Курлак,Село,51.41667,40.53111,1701,,,361
60,Студёное (Воронежская область),Студёное,Село,51.402,40.199056,,,,323
61,Суровский (Воронежская область),Суровский,Посёлок,51.3876833,41.0334472,,,,109
62,Трежесковка,Трежесковка,Посёлок,51.4499583,41.1128639,,,,0
63,Фоминовка,Фоминовка,Хутор,51.497757,40.367981,,,,0
64,Хлебородное (Воронежская область),Хлебородное,Село,51.46472,40.68889,XIX век,,,766
65,Центральная Усадьба совхоза «Пугачёвский»,Центральная Усадьба совхоза «Пугачёвский»,Посёлок,51.56778,40.66722,,,,743
66,2-е Никольское,2-е Никольское,Село,51.124934,39.816298,,,,675
67,Анновка (Воронежская область),Анновка,Село,50.98639,40.31167,,,,543
68,Бобров (город),Бобров,Город,51.09444,40.03222,в 1698 году,,22[1] км²,20007
69,Бобровский 1-й (Воронежская область),Бобровский 1-й,Посёлок,51.35194,39.89222,,,,11
70,Брагинского лесничества,Брагинского лесничества,Посёлок,51.18583,40.34889,,,,18
71,Верхний Икорец,Верхний Икорец,Село,51.18361,39.79472,,,,1155
72,Висленского лесничества,Висленского лесничества,Посёлок,51.19972,40.19389,,,,18
73,Заводской (Воронежская область),Заводской,Посёлок,50.9793778,40.0408361,,,,7
74,Заречный (Воронежская область),Заречный,Посёлок,51.18111,39.82639,,,,196
75,Заря (Бобровский район),Заря,Хутор,51.1636472,40.4048278,,,,44
76,Зелёный Луг (Воронежская область),Зелёный Луг,Посёлок,51.06889,40.13417,,,,0
77,Карандеевка (Воронежская область),Карандеевка,Посёлок,51.0763722,39.8413639,,,,50
78,Кистенёвка,Кистенёвка,Посёлок,50.949972,40.1878917,,,,9
79,Копаня,Копаня,Посёлок,51.0482472,39.9460778,,,,75
80,Коршево (Воронежская область),Коршево,Село,51.19,40.12083,,,,1997
81,Липовка (Воронежская область),Липовка,Село,50.8602167,40.0292333,,,,661
82,Лугань (Воронежская область),Лугань,Посёлок,50.9240583,40.0137833,,,,20
83,Лушниковка (Воронежская область),Лушниковка,Посёлок,51.09722,40.09639,,,,543
84,Люблинский (Воронежская область),Люблинский,Посёлок,51.3066722,39.8542389,,,,0
85,Мечётка (Воронежская область),Мечётка,Село,50.91417,40.11278,,,,937
86,Митрофановка (Бобровский район),Митрофановка,Посёлок,51.00167,40.36528,,,,143
87,Морозовка (Бобровский район),Морозовка,Посёлок,50.8900778,40.2538111,,,,1
88,Неждановка (Воронежская область),Неждановка,Посёлок,51.0253028,39.97835,,,,74
89,Нескучный,Нескучный,Посёлок,51.1378639,39.7852333,,,,159
90,Николо-Варваринка,Николо-Варваринка,Село,51.00667,39.97861,,,,956
91,Новый Буравль,Новый Буравль,Село,50.9677528,40.2071167,,,,87
92,Павловка (Бобровский район),Павловка,Село,50.9772111,40.0916472,,,,1
93,Песковатка (Бобровский район),Песковатка,Село,51.25639,39.94972,,,,448
94,Петрово-Борковский,Петрово-Борковский,Посёлок,51.019556,39.932,,,,124
95,Погромок,Погромок,Посёлок,51.25,39.83,,,,73
96,Прохладный (Воронежская область),Прохладный,Хутор,51.35972,39.87611,,,,0
97,Пчелиновка (Воронежская область),Пчелиновка,Село,50.94167,39.99639,,,,634
98,Пятилетка 2-я,Пятилетка 2-я,Посёлок,51.32667,39.94917,,,,0
99,Раздольный (Воронежская область),Раздольный,Хутор,51.13889,39.81639,,,,71
100,Семёно-Александровка,Семёно-Александровка,Село,51.04111,40.21444,,,,1772
101,Серов (Воронежская область),Серов,Хутор,50.77694,40.00528,,,,1
102,Слобода (Воронежская область),Слобода,Село,51.14,40.29,1845,,,3686
103,Советский (Бобровский район),Советский,Посёлок,50.8735722,40.2201639,,,,0
104,Соколовский (Бобровский район),Соколовский,Хутор,51.04565,39.8353583,,,,110
105,Сухая Берёзовка (село),Сухая Берёзовка,Село,51.1779111,39.9992944,,,,1176
106,Тройня (село),Тройня,Село,51.03944,40.43389,,,,359
107,Филатовка (Воронежская область),Филатовка,Посёлок,50.929583,40.242825,,,,14
108,Хренище,Хренище,Хутор,51.104083,39.7857944,,,,99
109,Хреновое (Бобровский район),Хреновое,Село,51.12,40.28667,,XVIII век,,4983
110,Центральная Усадьба Бобровского Лесничества,Центральная Усадьба Бобровского Лесничества,Посёлок,51.131019,40.273774,,,,1
111,Чесменка (Воронежская область),Чесменка,Село,51.29028,40.17028,,,,1112
112,Шестаково (Воронежская область),Шестаково,Село,50.79167,40.05,1701,,,1917
113,Шестикурганный,Шестикурганный,Хутор,51.0774333,40.3917806,,,,158
114,Шишовка (Воронежская область),Шишовка,Село,51.24444,40.19389,,,,1153
115,Шкарин (хутор),Шкарин,Хутор,51.123694,40.3801083,,,,153
116,Юдановка (Воронежская область),Юдановка,Село,51.2736278,39.8346694,,,,611
117,Ясенки (Воронежская область),Ясенки,Посёлок,51.0530083,39.9735444,,,,1891
118,Абросимово (Воронежская область),Абросимово,Село,49.887444,40.8977611,,1645,,94
119,Батовка,Батовка,Хутор,49.5972417,40.5421444,,,,139
120,Белая Горка 1-я,Белая Горка 1-я,Село,49.7930361,40.9417056,,,,169
121,Белая Горка 2-я,Белая Горка 2-я,Село,49.7898778,40.970889,,,,12
122,Белый Колодезь (Воронежская область),Белый Колодезь,Хутор,49.986225,40.2420333,,,,22
123,Богучар,Богучар,Город,49.93333,40.55,1704,,13[1] км²,11048
124,Варваровка (Богучарский район),Варваровка,Хутор,49.7415194,40.4488167,,,,519
125,Вервековка,Вервековка,Село,49.9229194,40.4713722,,,,499
126,Вишнёвый (Воронежская область),Вишнёвый,Посёлок,49.97917,40.40111,1978,,,330
127,Галиевка (Воронежская область),Галиёвка,Хутор,49.98083,40.635,,,,603
128,Грушовое (Богучарский район),Грушовое,Село,50.00972,40.60361,,,,139
129,Данцевка,Данцевка,Село,49.9087306,40.26675,,,,554
130,Дубовиково,Дубовиково,Село,50.0146417,40.3045167,,,,59
131,Дубрава (Воронежская область),Дубрава,Посёлок,49.85139,40.77806,1841,,,466
132,Дьяченково,Дьяченково,Село,49.9112278,40.5998222,1730,,,2288
133,Дядин (Воронежская область),Дядин,Хутор,49.8330361,40.530472,,,,333
134,Журавка (Богучарский район),Журавка,Село,50.0481361,40.5973389,,,,552
135,Залиман (Воронежская область),Залиман,Село,49.94667,40.57833,1720,,,2569
136,Каразеево,Каразеево,Село,49.700194,40.7808861,,,,78
137,Кравцово (Воронежская область),Кравцово,Хутор,49.6458667,40.5833417,,,,81
138,Красногоровка (Воронежская область),Красногоровка,Село,49.9233222,40.7676417,,1773,,482
139,Краснодар (Воронежская область),Краснодар,Хутор,49.895425,40.2427167,,,,128
140,Криница (Богучарский район),Криница,Село,49.7113639,40.6108083,,,,509
141,Купянка (Воронежская область),Купянка,Село,49.9023583,40.545575,1846,,,1062
142,Лебединка (Воронежская область),Лебединка,Село,49.6516639,40.4329667,,1792,,760
143,Липчанка,Липчанка,Село,49.78583,40.46444,,,,809
144,Лофицкое,Лофицкое,Село,49.9125,40.45778,,,,748
145,Луговое (Воронежская область),Луговое,Село,49.9089972,40.3319833,1740,,,841
146,Марьевка (Богучарский район),Марьевка,Хутор,49.7365667,40.3641833,,,,26
147,Монастырщина (Воронежская область),Монастырщина,Село,49.8318694,40.9211056,1595,,,1093
148,Новоникольск (Воронежская область),Новоникольск,Село,49.6262278,40.3823417,,,,103
149,Перещепное (Богучарский район),Перещепное,Хутор,49.9948722,40.5119306,,,,182
150,Плесновка,Плесновка,Село,49.6461333,40.4954528,,,,296
151,Подколодновка,Подколодновка,Село,50.0015111,40.662306,1720,,,1582
152,Полтавка (Воронежская область),Полтавка,Село,49.8747667,40.5565639,,,,523
153,Поповка (Богучарский район),Поповка,Село,49.9118361,40.496778,,,,399
154,Радченское,Радченское,Село,49.8023806,40.5023167,,,,1175
155,Расковка (Воронежская область),Расковка,Село,49.9089972,40.367,,1779,,318
156,Свобода (Богучарский район),Свобода,Село,50.028575,40.4514583,1740,,,175
157,Старотолучеево,Старотолучеево,Село,49.969075,40.759611,1716,,,375
158,Сухой Донец (село),Сухой Донец,Село,49.8072139,40.914583,1767,,,788
159,Твердохлебовка,Твердохлебовка,Село,49.936889,40.349,1720,,,726
160,Терешково (Воронежская область),Терешково,Село,49.9202722,40.6595611,,1772,,624
161,Тихий Дон (Воронежская область),Тихий Дон,Хутор,50.0659111,40.5182472,,1779,,48
162,Травкино (Воронежская область),Травкино,Село,49.81083,40.38167,1929,,,428
163,Филоново (Воронежская область),Филоново,Село,50.0405778,40.4864667,,1740,,596
164,Шуриновка,Шуриновка,Село,49.7350222,40.3921472,,,,409
165,Южный (Воронежская область),Южный,Посёлок,49.7533861,40.777111,,,,413
166,Алексеевский (Воронежская область),Алексеевский,Посёлок,50.861208,40.338395,,,,9
167,Благовещенский (Бутурлиновский район),Благовещенский,Посёлок,50.881317,40.347204,,,,0
168,Бутурлиновка,Бутурлиновка,Город,50.825,40.58889,1740,,"37,72 км²",24
169,Васильевка (Бутурлиновский район),Васильевка,Село,50.920373,40.979639,,,,868
170,Великоархангельское,Великоархангельское,Село,50.85,40.76,,,,1134
171,Верхние Озерки,Верхние Озерки,Посёлок,50.929849,40.377621,,,,1
172,Гвазда,Гвазда,Село,50.75278,40.4825,,,,2183
173,Данило (Бутурлиновский район),Данило,Хутор,50.64185,40.50615,,,,5
174,Дмитриевка (Бутурлиновский район),Дмитриевка,Село,50.780544,40.524401,,,,292
175,Елизаветино (Воронежская область),Елизаветино,Село,50.7658972,40.8086722,,,,488
176,Зелёный (Воронежская область),Зелёный,Посёлок,50.797269,40.659056,,,,705
177,Зелёный Гай (Воронежская область),Зелёный Гай,Посёлок,50.81111,40.52944,,,,240
178,Земледелец (Воронежская область),Земледелец,Посёлок,50.87056,40.52778,,,"0,3853 км²",24
179,Карайчевка,Карайчевка,Село,50.885951,40.283833,,,,860
180,Клёповка,Клеповка,Село,50.729806,40.463634,,,,2110
181,Козловка (Бутурлиновский район),Козловка,Село,50.86389,40.45972,,,,2785
182,Колодеевка (Бутурлиновский район),Колодеевка,Село,50.854261,41.003649,,,,530
183,Комсомольский (Бутурлиновский район),Комсомольский,Посёлок,50.84778,40.29611,,,,26
184,Круглый (Воронежская область),Круглый,Посёлок,50.905,40.54722,,,"0,1349 км²",9
185,Кучеряевка (Воронежская область),Кучеряевка,Село,50.8783917,40.913525,,,,693
186,Макогоново,Макогоново,Село,50.9293417,40.8169139,,,,193
187,Малый Кисляй,Малый Кисляй,Посёлок,50.86861,40.13,,,,325
188,Марьевка (Бутурлиновский район),Марьевка,Село,50.794263,40.503102,,,,28
189,Масычево (Воронежская область),Масычево,Село,50.7232,40.7400083,,,,168
190,Нижний Кисляй,Нижний Кисляй,Посёлок городского типа,50.85528,40.17972,XVII век,,"9,86 км²",3241
191,Отрадное (Бутурлиновский район),Отрадное,Село,50.88806,40.56861,,,"0,8933 км²",63
192,Патокино (Воронежская область),Патокино,Село,50.8009806,40.7901333,,,,280
193,Пирамиды (село),Пирамиды,Село,50.859809,40.301822,,,,84
194,Пузево (Воронежская область),Пузево,Село,50.66,40.39333,,,,1977
195,Рахмановка (Воронежская область),Рахмановка,Хутор,50.82611,40.325,,,,0
196,Сериково,Сериково,Село,50.9532306,40.8699417,,,,435
197,Толучеево,Толучеево,Село,50.844916,41.032489,,,,86
198,Тюниково,внутреннее деление,Село,50.86887,40.721832,,,,128
199,Ударник (Воронежская область),Ударник,Село,50.92167,40.72361,,,,490
200,Филиппенково,Филиппенково,Село,50.74222,40.74778,,,,915
201,Чернавка (Бутурлиновский район),Чернавка,Деревня,50.6829083,40.3863861,,,,347
202,Чулок (Воронежская область),Чулок,Село,50.9362861,40.6534917,,,,610
203,Верхний Мамон,Верхний Мамон,Село,50.16778,40.39667,в 1702 году,1653,,8561
204,Гороховка (Верхнемамонский район),Гороховка,Село,50.1070861,40.194833,1702,,"17,5 км²",1142
205,Дерезовка (Воронежская область),Дерезовка,Село,50.0768389,40.3026722,,,,825
206,Донской (Воронежская область),Донской,Хутор,50.0878861,40.1856,,,,32
207,Красноярский (Воронежская область),Красноярский,Хутор,50.23417,40.40611,,,,1
208,Лукьянчиков (хутор),Лукьянчиков,Хутор,50.099914,40.572616,,,,1
209,Мамоновка (Воронежская область),Мамоновка,Село,50.39444,40.5,1787,1795,,533
210,Нижний Мамон,Нижний Мамон,Село,50.17,40.5,,,,3564
211,Ольховатка (Верхнемамонский район),Ольховатка,Село,50.17195,40.0992111,1712,,,792
212,Оробинский,Оробинский,Хутор,50.03639,40.2288583,,,,174
213,Осетровка (Воронежская область),Осетровка,Село,50.1435167,40.4698722,,,,686
214,Приречное (Воронежская область),Приречное,Село,50.2181972,40.4696833,,,,636
215,Русская Журавка,Русская Журавка,Село,50.3525528,40.54985,,,,1423
216,Абрамовка (Верхнехавский район),Абрамовка,Деревня,51.91694,40.06889,,,,23
217,Александровка (Верхнехавский район),Александровка,Село,51.83806,40.32889,,,,285
218,Андреевка 1-я,Андреевка 1-я,Деревня,51.75944,39.86528,,,,72
219,Беловка (Воронежская область),Беловка,Село,51.90833,39.79,,,,154
220,Большая Михайловка (Воронежская область),Большая Михайловка,Посёлок,51.90139,40.0225,,,,23
221,Большая Приваловка,Большая Приваловка,Село,51.89833,39.75194,,,,582
222,Васильевка 1-я (Воронежская область),Васильевка 1-я,Село,51.781445,40.101585,,,,337
223,Васильевка 2-я,Васильевка 2-я,Посёлок,51.84361,40.28111,,,,11
224,Верхняя Байгора,Верхняя Байгора,Село,51.9199889,39.868475,,,,396
225,Верхняя Луговатка,Верхняя Луговатка,Село,51.96444,40.09889,,,,576
226,Верхняя Маза (Воронежская область),Верхняя Маза,Посёлок,51.81472,40.15194,,,,448
227,Верхняя Плавица,Верхняя Плавица,Село,51.94889,40.20917,,XVIII,,432
228,Верхняя Хава,Верхняя Хава,Село,51.83889,39.94167,,,,8154
229,Виноградовка (Верхнехавский район),Виноградовка,Посёлок,51.855,39.88722,,,,16
230,Вишнёвка (Воронежская область),Вишнёвка,Посёлок,51.83389,39.84306,,,,808
231,Владимировка (Верхнехавский район),Владимировка,Посёлок,51.82139,39.69833,,,,1
232,Воля (Верхнехавский район),Воля,Посёлок,51.87278,40.28611,,,,58
233,Воронеж,Воронеж,Город,51.67167,39.21056,15,,"596,51[1] км²",1050602
234,Грушино (Воронежская область),Грушино,Село,51.83694,39.80861,,,,124
235,Дмитро-Покровское,Дмитро-Покровское,Село,51.7822333,39.8705444,,,,56
236,Енино (Воронежская область),Енино,Посёлок,51.84278,39.63972,,,,7
237,Желдаевка,Желдаевка,Посёлок,51.8579556,39.6487472,,,,79
238,Забугорье,Забугорье,Село,51.8194833,39.6350139,,,,48
239,Ильиновка (Воронежская область),Ильиновка,Деревня,51.7282167,39.82865,,,,35
240,Краснолесный,Краснолесный,  ,51.88028,39.59444,,,,5405
241,Лукичёвка,Лукичёвка,Посёлок,51.8390528,39.6381028,,,,1
242,Малая Приваловка,Малая Приваловка,Село,51.861225,39.673205,,,,435
243,Малиновка (Верхнехавский район),Малиновка,Посёлок,51.87306,39.86028,,,,153
244,Малый Самовец (Воронежская область),Малый Самовец,Посёлок,51.92944,40.32667,,,,215
245,Митрофановка (Верхнехавский район),Митрофановка,Посёлок,51.84722,40.31972,,,,53
246,Мокруша (Воронежская область),Мокруша,Деревня,51.81,40.02611,,,,9
247,НИИОХ,НИИОХ,Посёлок,51.84028,39.82944,,,,256
248,Нескучное (Воронежская область),Нескучное,Посёлок,51.82583,39.73889,,,,1
249,Нижняя Байгора,Нижняя Байгора,Село,51.938325,39.9251222,,,,575
250,Николаевка (Верхнехавский район),Николаевка,Посёлок,51.8125,40.18306,,,,11
251,Никольское (Верхнехавский район),Никольское,Посёлок,51.86444,39.73472,,,,79
252,Никольское 3-е,Никольское 3-е,Деревня,51.78889,40.23333,,,,18
253,Никоново (Воронежская область),Никоново,Село,51.795861833,39.587409833,1912,,,548
254,Охочевка (Воронежская область),Охочевка,Село,51.94806,40.04333,,,,1
255,Плясоватка,Плясоватка,Село,51.8969278,40.1122333,,,,259
256,Подлесный (Верхнехавский район),Подлесный,Посёлок,51.80556,39.56639,,,,2460
257,Покровка (Верхнехавский район),Покровка,Деревня,51.9147639,40.0985,,,,95
258,Правая Хава (село),Правая Хава,Село,51.7221417,39.775778,,,,563
259,Приобретёнка,Приобретёнка,Посёлок,51.86778,40.33556,,,,0
260,Семёновка (Верхнехавский район),Семеновка,Село,51.90556,40.04694,,,,352
261,Семёновка 1-я,Семёновка 1-я,Деревня,51.77972,39.82639,,,,1
262,Семёновка 2-я,Семёновка 2-я,Деревня,51.78306,39.79722,,,,7
263,Синицино (Воронежская область),Синицино,Посёлок,51.82444,40.20111,,,,1
264,Спасское (Верхнехавский район),Спасское,Село,51.82778,39.77389,,,,16
265,Степановка (Верхнехавский район),Степановка,Посёлок,51.8225,40.3025,,,,11
266,Сухие Гаи,Сухие Гаи,Село,51.7745639,39.8829028,,,,381
267,Таловая (Верхнехавский район),Таловая,Деревня,51.8055417,39.9237583,,,,104
268,Троицкий (Верхнехавский район),Троицкий,Посёлок,51.85083,39.7875,,,,15
269,Углянец,Углянец,Село,51.81667,39.6,1617,,,3658
270,Фоминичи (Воронежская область),Фоминичи,Посёлок,51.79083,40.15694,,,,38
271,Хлопотное,Хлопотное,Посёлок,51.7604,39.7905389,,,,14
272,Черняхи,Черняхи,Посёлок,51.85667,39.97444,,,,0
273,Шукавка (Верхнехавский район),Шукавка,Посёлок,51.88194,40.185,,,,593
274,Эртель (хутор),Эртель,Хутор,51.8521083,39.70265,,,,18
275,Банное (Воронежская область),Банное,Село,50.815,41.18528,1735,,,376
276,Берёзовка (Воробьёвский район),Березовка,Село,50.7091583,40.979611,1730,,,1410
277,Верхнетолучеево,Верхнетолучеево,Село,50.7544806,41.0345417,,,,270
278,Верхний Бык,Верхний Бык,Село,50.7275,41.23917,1790,,,548
279,Воробьёвка (Воронежская область),Воробьёвка,Село,50.64417,40.94528,1730,,,4800
280,Высокое (Воробьёвский район),Высокое,Посёлок,50.79111,41.15944,,,,56
281,Горюшкин (хутор),Горюшкин,Хутор,50.5669056,41.0767639,,,,64
282,Елизаветовка (Воробьёвский район),Елизаветовка,Село,50.7533917,40.9188417,,,,379
283,Затон (Воронежская область),Затон,Село,50.6559361,40.7334472,1960-х,середина 18 века,,732
284,Землянка (Воронежская область),Землянка,Хутор,50.82444,41.12806,1840-1850 годы,,,28
285,Каменка (Воробьёвский район),Каменка,Село,50.6199111,40.6555139,,,,307
286,Квашино (Воронежская область),Квашино,Село,50.64972,40.82306,конец 18 века,,,429
287,Краснополье (Воронежская область),Краснополье,Село,50.62167,41.28722,около 1790,,,640
288,Лещаное,Лещаное,Село,50.59611,40.88722,,,,1062
289,Луговской (Воронежская область),Луговской,Хутор,50.6590778,41.1488694,,,,0
290,Мирный (Воронежская область),Мирный,Посёлок,50.69515,41.097425,неизвестно,,,137
291,Мужичье,Мужичье,Село,50.746639,41.0681889,1780,,,909
292,Нагольный (Воронежская область),Нагольный,Хутор,50.6514333,41.3805444,1907,1907,,134
293,Нижний Бык,Нижний Бык,Село,50.69944,41.17417,1790,,,271
294,Никольское 1-е (Воробьёвский район),Никольское 1-е,Село,50.5760944,41.1460944,1740,,,1197
295,Никольское 2-е (Воробьёвский район),Никольское 2-е,Село,50.61556,41.14139,2001,,,517
296,Новотолучеево,Новотолучеево,Село,50.55417,40.97389,18 век,,,823
297,Первомайский (Воробьёвский район),Первомайский,Посёлок,50.6448389,40.8603972,1896,,,556
298,Посёлок 1-го отделения совхоза «Краснопольский»,1-го отделения совхоза «Краснопольский»,Посёлок,50.6220167,41.3801861,,1907,,568
299,Посёлок 2-го отделения совхоза «Краснопольский»,2-го отделения совхоза «Краснопольский»,Посёлок,50.64833,41.24444,,,,6
300,Посёлок Центральной усадьбы совхоза Воробьёвский,Центральной усадьбы совхоза Воробьёвский,Посёлок,50.68806,40.82056,,,,1180
301,Рудня (Воронежская область),Рудня,Село,50.5465,40.9609917,,,,
302,Солонцы (Воробьёвский район),Солонцы,Село,50.6190389,40.7022056,1844,,,708
303,Алексеевка (Грибановский район),Алексеевка,Село,51.60333,42.00389,,,,492
304,Бирючий (Воронежская область),Бирючий,Посёлок,51.45472,41.61611,,,,13
305,Большие Алабухи,Большие Алабухи,Село,51.57361,42.24972,,,,626
306,Васильевка (Грибановский район),Васильевка,Село,51.28917,41.735,,,,580
307,Верхний Затон,Верхний Затон,Посёлок,51.54556,42.23194,,,,18
308,Верхний Карачан,Верхний Карачан,Село,51.405,41.77111,,,,1977
309,Власовка (Воронежская область),Власовка,Село,51.56361,42.30444,,,,147
310,Грибановский (посёлок городского типа),Грибановский,Посёлок городского типа,51.45,41.96667,1703,,,14652
311,Дмитриевка (Грибановский район),Дмитриевка,Село,51.47306,41.6,,,,96
312,Дмитриевка 2-я,Дмитриевка 2-я,Посёлок,51.41333,41.86111,,,,10
313,Емельяновка (Воронежская область),Емельяновка,Посёлок,51.49306,41.78306,,,,35
314,Калиново (Грибановский район),Калиново,Село,51.43167,41.59556,,,,139
315,Кирсановка (Воронежская область),Кирсановка,Село,51.45333,41.78833,,,,912
316,Красная Заря (Воронежская область),Красная Заря,Посёлок,51.55694,42.09056,,,,18
317,Краснореченка,Краснореченка,Село,51.37694,41.27167,,,,287
318,Красовка (Воронежская область),Красовка,Деревня,51.43806,41.49556,,,,148
319,Кутки (Воронежская область),Кутки,Село,51.33806,41.54528,,,,470
320,Лавровка (Воронежская область),Лавровка,Село,51.39056,41.52556,,,,142
321,Листопадовка (Воронежская область),Листопадовка,Село,51.41583,41.43833,,,,2286
322,Малая Грибановка,Малая Грибановка,Село,51.50972,42.07583,1703,,,728
323,Малые Алабухи 1-е,Малые Алабухи 1-е,Село,51.54806,42.16111,,,,974
324,Малые Алабухи 2-е,Малые Алабухи 2-е,Село,51.56,42.19,,,,257
325,Маяк (Воронежская область),Маяк,Посёлок,51.34833,41.82444,,,,0
326,Межевихин,Межевихин,Посёлок,51.57778,41.98861,,,,21
327,Нижний Карачан,Нижний Карачан,Село,51.34861,41.77333,,,,1908
328,Новая Жизнь (Грибановский район),Новая Жизнь,Посёлок,51.42306,41.21444,,,,34
329,Новогольелань,Новогольелань,Село,51.51028,41.25778,,,,639
330,Новогольское,Новогольское,Село,51.4875,41.46222,,,,709
331,Новомакарово,Новомакарово,Село,51.46222,41.23889,1886,,,0
332,Новоспасовка (Воронежская область),Новоспасовка,Село,51.56917,41.28111,,,,
333,Поляна (Грибановский район),Поляна,Село,51.41306,41.50889,,,,
334,Посевкино,Посевкино,Село,51.66583,42.23861,,,,
335,Посёлок Первомайского отделения совхоза «Грибановский»,Первомайского отделения совхоза «Грибановский»,Посёлок,51.49722,42.01167,,,,232
336,Посёлок совхоза «Павловка»,Совхоза «Павловка»,Посёлок,51.68417,42.16,,,,341
337,Савельевский (Воронежская область),Савельевский,Посёлок,51.44028,41.5925,,,,
338,Симкин (Воронежская область),Симкин,Посёлок,51.57167,41.95,,,,
339,Средний Карачан,Средний Карачан,Село,51.38222,41.76917,,,,1091
340,Старогольское (Воронежская область),Старогольское,Село,51.46833,41.4825,,,,
341,Таволжанка (Грибановский район),Таволжанка,Село,51.30472,41.58111,,,,21
342,Теллермановский,Теллермановский,Посёлок,51.365,42.04889,,,,
343,Тихвинка (Воронежская область),Тихвинка,Село,51.36639,41.51167,,,,
344,Тупки (Воронежская область),Тупки,Посёлок,51.45417,41.49389,,,,
345,Хомутовка (Воронежская область),Хомутовка,Село,51.55083,41.26361,,,,
346,Чичерино (Воронежская область),Чичерино,Посёлок,51.57167,42.05694,,,,
347,Благовещенский (Калачеевский район),Благовещенский,Хутор,50.535,41.40472,,,,39
348,Блощицын,Блощицын,Хутор,50.46083,41.29417,,,,14
349,Гаранькин (хутор),Гаранькин,Хутор,50.475,40.91861,,,,52
350,Гринёв (Калачеевский район),Гринёв,Хутор,50.495,40.90722,,,,79
351,Грушовое (Калачеевский район),Грушёвое,Хутор,50.3465972,40.7374667,,,,53
352,Долбнёвка,Долбнёвка,Хутор,50.49083,41.14722,,,,0
353,Журавлёво (Воронежская область),Журавлёво,Хутор,50.3509917,40.8157444,,,,45
354,Заброды (Воронежская область),Заброды,Село,50.39917,41.02889,1998,,,9043
355,Залесный (Воронежская область),Залесный,Хутор,50.41028,40.91472,,,,310
356,Ильинка (Калачеевский район),Ильинка,Село,50.44278,41.11556,,,,531
357,Калач (город),Калач,Город,50.42583,41.01556,в 1716 году,,20[1] км²,18221
358,Калачеевский,Калачеевский,Посёлок,50.33944,41.16139,,,,1082
359,Колос (Воронежская область),Колос,Посёлок,50.3475,41.27861,1998,,,0
360,Коренное (Воронежская область),Коренное,Село,50.57083,41.44,XVIII век,,,681
361,Крутой (Воронежская область),Крутой,Хутор,50.47389,40.8775,,,,17
362,Лесково (Калачеевский район),Лесково,Село,50.37515,40.7230472,,,,727
363,Манино (Воронежская область),Манино,Село,50.48694,41.39139,XVIII век,,,2409
364,Медвежье (Калачеевский район),Медвежье,Село,50.55083,40.695,,,,381
365,Морозов (Воронежская область),Морозов,Хутор,50.40417,40.81278,,,,73
366,Морозовка (Калачеевский район),Морозовка,Хутор,50.38972,40.57028,,,,135
367,Николенков (хутор),Николенков,Хутор,50.465,40.98028,,,,50
368,Новая Криуша,Новая Криуша,Село,50.25972,41.29639,,,,1941
369,Новомеловатка,Новомеловатка,,50.44472,40.78667,1732,,,1950
370,Переволочное (Воронежская область),Переволочное,Село,50.31,40.70333,1786,,"4,1 км²",464
371,Пирогово (Воронежская область),Пирогово,Село,50.44722,40.6075,,,,
372,Подгорное (Калачеевский район),Подгорное,Село,50.46694,41.18528,,,,
373,Попасное (Калачеевский район),Попасное,Село,50.48639,40.66861,,,,
374,Поплавский (Воронежская область),Поплавский,Хутор,50.4875,40.985,,,,
375,Пригородный (Воронежская область),Пригородный,Посёлок,50.36972,41.01722,,,,4163
376,Пришиб (Воронежская область),Пришиб,Село,50.45722,41.00778,,,,
377,Репяховка (Воронежская область),Репяховка,Хутор,50.4970639,40.791025,,,,
378,Россоховатое (Воронежская область),Россоховатое,Хутор,50.41694,40.55972,,,,
379,Россыпное (Воронежская область),Россыпное,Село,50.52833,40.66194,,,,
380,Рыбкин (хутор),Рыбкин,Хутор,50.41806,40.93417,,,,
381,Семёновка (Калачеевский район),Семёновка,Село,50.42278,40.58611,,,,666
382,Сереженков (хутор),Сереженков,Хутор,50.39778,40.98417,,,,3
383,Серяково,Серяково,Село,50.52583,41.15556,,,,
384,Скрипниково,Скрипниково,Село,50.25889,41.38639,,,,
385,Советское (Воронежская область),Советское,Село,50.3533417,41.3969833,,,,330
386,Хвощеватое (Воронежская область),Хвощеватое,Хутор,50.5668278,40.7512,,,,
387,Хлебороб (Калачеевский район),Хлебороб,Хутор,50.34333,41.24528,,,,
388,Хрещатое (Воронежская область),Хрещатое,Село,50.3606556,40.701075,,,,739
389,Чернозёмный,Чернозёмный,Посёлок,50.27,41.09528,,,,
390,Четвериково (Воронежская область),Четвериково,Село,50.36806,40.83083,,,,284
391,Ширяево (Воронежская область),Ширяево,Село,50.3277,40.9503278,1725-1730 гг,,"132,18 км²",2273
392,Юнаково,Юнаково,Село,50.50278,40.59694,,,,
393,Яроватое,Яроватое,Хутор,50.3509917,40.6797889,,,,49
394,Ясеновка (Воронежская область),Ясеновка,Село,50.52667,40.79833,,,,530
395,Атамановка (Каменский район),Атамановка,Хутор,50.6563111,39.365325,,,,50
396,Верхние Марки,Верхние Марки,Село,50.7632861,39.6061639,,,,383
397,Волчанское (Воронежская область),Волчанское,Село,50.7751028,39.5313972,,,,454
398,Воронец (Воронежская область),Воронец,Хутор,50.5335667,39.2332806,,,,8
399,Гойкалово,Гойкалово,Хутор,50.6766222,39.2710667,,,,202
400,Дальнее Стояново,Дальнее Стояново,Хутор,50.7033139,39.2810222,,,,67
401,Дегтярное (Воронежская область),Дегтярное,Село,50.64583,39.27417,,,,406
402,Евдаково (село),Евдаково,Село,50.75083,39.38528,,,,676
403,Ивченково,Ивченково,Хутор,50.67785,39.5495167,,,,92
404,"Каменка (посёлок городского типа, Воронежская область)",Каменка,Посёлок городского типа,50.7125,39.43278,1750,XVIII век,,7953
405,Карпенково (Воронежская область),Карпенково,Село,50.616575,39.339917,,,,883
406,Кириченково (Воронежская область),Кириченково,Село,50.692875,39.3897,,,,218
407,Коденцово,Коденцово,Село,50.60722,39.44472,,,,647
408,Козки,Козки,Хутор,50.7967611,39.6974889,,,,106
409,Крутец (Воронежская область),Крутец,Хутор,50.7962139,39.47475,,,,398
410,Лесково (Каменский район),Лесково,Хутор,50.701775,39.5682278,,,,1
411,Ляпино (Воронежская область),Ляпино,Хутор,50.7692472,39.379475,,,,64
412,Марки (Воронежская область),Марки,Село,50.7793944,39.6782639,,,,1002
413,Михново (Воронежская область),Михново,Хутор,50.742917,39.3236861,,,,73
414,Молчаново (Воронежская область),Молчаново,Хутор,50.6582111,39.5419639,,,,34
415,Новиковский (Воронежская область),Новиковский,Хутор,50.69545,39.5994694,,,,251
416,Ольхов Лог,Ольхов Лог,Село,50.5713139,39.2621583,,,,
417,Орехово (Воронежская область),Орехово,Хутор,50.5421,39.23225,,,,
418,Панково (Каменский район),Панково,Хутор,50.56375,39.36385,,,,
419,Пилипы (Воронежская область),Пилипы,Село,50.6455528,39.5066,,,,
420,Рождественский (Воронежская область),Рождественский,Хутор,50.7683361,39.7489861,,,,46
421,Рыбальчино,Рыбальчино,Хутор,50.7692472,39.4388722,,,,116
422,Свистовка (Воронежская область),Свистовка,Хутор,50.6244361,39.23795,,,,
423,Себелево,Себелево,Хутор,50.702,39.66,,,,
424,Ситниково (Воронежская область),Ситниково (Пушкино),Хутор,50.6806361,39.2995639,,,,
425,Солонцы (Каменский район),Солонцы,Хутор,50.7065694,39.5805889,,,,
426,Сончино (Воронежская область),Сончино,Село,50.6912861,39.5096917,,,,
427,Татарино (Воронежская область),Татарино,Село,50.58639,39.13278,,,,
428,Тимирязево (Каменский район),Тимирязево,Село,50.718075,39.3803361,,,,536
429,Трёхстенки,Трехстенки,Село,50.66083,39.44222,,,,
430,Тхоревка,Тхоревка,Село,50.7038389,39.3284028,,,,
431,Фриденфельд (хутор),Фриденфельд,Хутор,50.5448278,39.2457417,1923,,,7
432,Хвощеватый (Каменский район),Хвощеватый,Хутор,50.65833,39.23667,,,,
433,Шапошниково (Воронежская область),Шапошниково,Хутор,50.64075,39.4781056,,,,
434,Щербаково (Воронежская область),Щербаково,Село,50.80389,39.34639,,,,
435,Ярки (Каменский район),Ярки,Село,50.73556,39.26639,,,,
436,Ясеново (Воронежская область),Ясеново,Хутор,50.80278,39.39972,,,,120
437,Андрюшевка (Воронежская область),Андрюшевка,Село,49.68139,40.21972,,,,49
438,Бондарево (Воронежская область),Бондарево,Село,49.79528,39.4375,,,,808
439,Бык (Воронежская область),Бык,Хутор,49.62028,40.02389,,,,5
440,Валентиновка (Воронежская область),Валентиновка,Село,49.9325,39.74528,,,,280
441,Васильевка (Кантемировский район),Васильевка,Хутор,49.93667,39.66528,,,,0
442,Викторовка (Воронежская область),Викторовка,Село,49.69167,40.23528,,,,26
443,Волоконовка (Воронежская область),Волоконовка,Село,49.8425,39.38833,,,,638
444,Гармашевка,Гармашевка,Сельское поселение,49.6475,40.07583,,,,502
445,Гартмашевка,Гартмашевка,Посёлок при станции,49.60694,39.97278,,,,30
446,Дальний Россоховатый,Дальний Россоховатый,Хутор,49.61361,39.97278,,,,18
447,Евдокиевка (Воронежская область),Евдокиевка,Село,49.96611,39.73194,,,,478
448,Журавка (Кантемировский район),Журавка,Село,49.78583,39.78306,,,,722
449,Зайцевка (Воронежская область),Зайцевка,Село,49.68583,40.00972,,,,545
450,Златополь (Воронежская область),Златополь,Хутор,49.87528,39.59139,,,,33
451,Казимировка (Воронежская область),Казимировка,Хутор,49.73056,39.77556,,,,160
452,Кантемировка,Кантемировка,Посёлок городского типа,49.70167,39.85361,1742,XVIII век,,10
453,Каплин (хутор),Каплин,Хутор,49.79667,40.22889,,,,1
454,Касьяновка (Воронежская область),Касьяновка,Село,49.74056,39.79,,,,706
455,Коваленковский,Коваленковский,Посёлок,49.72528,40.25028,,,,90
456,Колесниковка (Кантемировский район),Колесниковка,Село,49.66972,40.11583,,,,55
457,Колещатовка,Колещатовка,Село,49.57889,39.89083,,,,308
458,Криничный (Воронежская область),Криничный,Хутор,49.67306,40.3375,,,,30
459,Кузнецовский (Воронежская область),Кузнецовский,Посёлок,49.70056,40.30167,,,,311
460,Куликовка (Воронежская область),Куликовка,Село,49.84056,39.51556,,,,559
461,Лебедев (Воронежская область),Лебедев,Хутор,49.87611,39.73528,,,,0
462,Лиман (Воронежская область),Лиман,Хутор,49.89861,39.755,,,,49
463,Митрофановка (Кантемировский район),Митрофановка,Село,49.96833,39.69417,,,,6199
464,Михайловка (Кантемировский район),Михайловка,Село,49.88556,39.63028,,,,928
465,Новобелая (Воронежская область),Новобелая,Село,49.81333,39.30306,,,,1315
466,Новомарковка (Воронежская область),Новомарковка,Село,49.71667,39.74917,,,,
467,Осиковка,Осиковка,Село,49.66639,40.26917,,,,
468,Пасеково (Воронежская область),Пасеково,Хутор,49.86333,39.72722,,,,
469,Пасюковка,Пасюковка,Село,49.81611,39.70389,,,,
470,Первомайский (Кантемировский район),Первомайский,Посёлок,49.73139,39.99194,,,,
471,Писаревка (Кантемировский район),Писаревка,Село,49.88333,40.18444,,,,
472,Попасное (Кантемировский район),Попасное,Село,49.67639,39.64444,,,,
473,Посёлок Охрового Завода,Охрового Завода,Посёлок,49.76944,39.84194,1912,,,
474,Рудаевка,Рудаевка,Село,49.77583,40.10806,,,,
475,Сергеевка (Кантемировский район),Сергеевка,Хутор,49.65722,40.21639,,,,
476,Скнаровка,Скнаровка,Село,49.81278,39.93972,,,,
477,Смаглеевка,Смаглеевка,Село,49.79722,39.89528,,,,
478,Солонцы (Кантемировский район),Солонцы,Хутор,49.92667,39.71333,,,,
479,Солёный (Воронежская область),Солёный,Хутор,49.83222,39.65444,,,,747
480,Софиевка (Воронежская область),Софиевка,Село,49.96556,39.60611,,,,
481,Талы (Воронежская область),Талы,Село,49.85444,40.07278,,,,1674
482,Титаревка,Титаревка,Село,49.74417,40.16139,,,,812
483,Фисенково,Фисенково,Село,49.90167,39.83139,,,,246
484,Хрещатый (Воронежская область),Хрещатый,Хутор,49.61806,39.70111,,,,
485,Чехуровка,Чехуровка,Село,49.82722,39.98361,,,,
486,Шевченко (Воронежская область),Шевченко,Хутор,50.02139,39.74,,,,
487,Шевченково (Воронежская область),Шевченково,Село,49.84806,39.8025,,,,355
488,Штеповка (Воронежская область),Штеповка,Хутор,49.64278,40.25556,,,,
489,40 лет Октября (Воронежская область),40 лет Октября,Посёлок,51.44139,39.22083,,,,44
490,Бирюченское,Бирюченское,Село,51.41944,39.52778,,,,148
491,Боево (Воронежская область),Боево,Населённый пункт,51.39444,39.31972,1769,,9.349 тыс. га км²,1961
492,Верхнее Марьино,Верхнее Марьино,Село,51.28028,39.51278,,,,108
493,Данково (Воронежская область),Данково,Село,51.29083,39.5325,,,,1226
494,Запрудское,Запрудское,Село,51.34833,39.72556,,,,683
495,Каменно-Верховка,Каменно-Верховка,Село,51.35806,39.1525,1769,,,437
496,Карамышево (Воронежская область),Карамышево,Посёлок,51.26389,39.54028,,,,61
497,Каширское (Воронежская область),Каширское,Село,51.40833,39.59167,,,,4342
498,Колодезный (Воронежская область),Колодезный (Воронежская область),Г,51.35,39.29611,,,,7
499,Коломенское (Воронежская область),Коломенское,Село,51.43667,39.66722,,,,229
500,Коммуна (Воронежская область),Коммуна,Посёлок,51.2325,39.68889,,,,57
501,Кондрашкино,Кондрашкино,Село,51.395,39.67917,,,,597
502,Красная Хворостань,Красная Хворостань,Посёлок,51.445,39.7275,,,,0
503,Красные Солонцы (Каширский район),Красные Солонцы,Посёлок,51.46667,39.65361,,,,19
504,Красный Лог (Каширский район),Красный Лог,Село,51.38694,39.7725,,,,1483
505,Круглое (Воронежская область),Круглое,Село,51.32583,39.29694,,,,826
506,Ламакин (хутор),Ламакин,Хутор,51.42833,39.47861,,,,0
507,Левая Россошь,Левая Россошь,Село,51.33389,39.40167,,,,1054
508,Михайловка (Каширский район),Михайловка,Хутор,51.28444,39.28556,,,,46
509,Михалёвский (хутор),Михалёвский,Хутор,51.29917,39.72889,,,,8
510,Можайское (Воронежская область),Можайское,Село,51.31583,39.6525,959,,,722
511,Мосальское (Воронежская область),Мосальское,Село,51.34306,39.53417,,,,537
512,Олень-Колодезь,Олень-Колодезь,Село,51.37056,39.24417,1770,,,
513,Посёлок имени Дзержинского (Воронежская область),имени Дзержинского,Посёлок,51.45528,39.23056,,,,1838
514,Рябчево,Рябчево,Посёлок,51.31361,39.49889,,,,
515,Солонцы (Каширский район),Солонцы,Село,51.31028,39.45083,,,,
516,Старина (Воронежская область),Старина,Село,51.30389,39.49917,,,,
517,Степной (Воронежская область),Степной,Посёлок,51.2775,39.73,,,,
518,"Аношкино (посёлок, Воронежская область)",Аношкино,Посёлок,51.240361,39.3537361,,,,156
519,"Аношкино (село, Воронежская область)",Аношкино,Село,51.2013389,39.269278,,,,625
520,Берёзово (Лискинский район),Берёзово,Хутор,51.09111,39.57833,,,,11
521,Бодеевка,Бодеевка,Село,51.11889,39.28222,,,,603
522,Владимировка (Лискинский район),Владимировка,Село,50.831825,39.8826028,,,,460
523,Вознесеновка (Лискинский район),Вознесеновка,Село,51.17472,39.43722,,,,1095
524,Высокое (Лискинский район),Высокое,Село,51.05306,39.48778,,,,2294
525,Вязники (Воронежская область),Вязники,Хутор,50.9722944,39.4008667,,,,36
526,Давыдовка (Воронежская область),Давыдовка,Посёлок городского типа,51.1540889,39.4301472,1766,,,4784
527,Демченков (хутор),Демченков,Хутор,50.8536889,39.3536556,,,,18
528,Дивногорье (Воронежская область),Дивногорье,Хутор,50.9503972,39.2913472,,,,251
529,Дмитриевка (Лискинский район),Дмитриевка,Село,51.2021083,39.4626083,,,,262
530,Добрино (Воронежская область),Добрино,Село,51.2305722,39.5299,,,,496
531,Дракино (Лискинский район),Дракино,Село,51.1409333,39.4088139,1770,,,3150
532,Дубовый (Лискинский район),Дубовый,Хутор,51.067775,39.717528,,,,17
533,Духовое (Лискинский район),Духовое,Село,50.960667,39.7996778,,,,24
534,Екатериновка (Лискинский район),Екатериновка,Слобода,50.840175,39.676425,,,,251
535,Ермоловка (Воронежская область),Ермоловка,Село,51.1922667,39.4260972,,,,689
536,Залужное (Воронежская область),Залужное,Село,50.9473639,39.5213667,,,,1970
537,Калач (хутор),Калач,Хутор,50.99139,39.44361,,,,295
538,Ковалёво (Воронежская область),Ковалёво,Село,50.883361,39.3961028,,,,1303
539,Коломыцево (Воронежская область),Коломыцево,Село,50.8793167,39.5278972,,,,831
540,Колыбелка,Колыбелка,Село,50.8407278,39.826375,,1653[1],,1309
541,Копанище,Копанище,Село,51.0039333,39.3339194,,,,880
542,Лиски,Лиски,Город,50.98222,39.49944,1965 год,в 1576 году упоминается деревня Покровка,65[1] км²,53504
543,"Лиски (село, Воронежская область)",Лиски,Село,50.945,39.48944,,,,2490
544,Лискинское,Лискинское,Село,51.02444,39.5475,,,,1505
545,Луговой (Лискинский район),Луговой,Хутор,51.1682333,39.4104222,,,,295
546,Масловка (Воронежская область),Масловка,Микрорайон,51.0005333,39.7585111,,,,234
547,Машкино (Воронежская область),Машкино,Село,51.14083,39.34167,,,,173
548,Мелахино,Мелахино,Село,50.8577,39.333575,,,,61
549,Мисево,Мисево,Село,50.8685639,39.3219028,,,,43
550,Михайловский (Лискинский район),Михайловский,Хутор,50.8924833,39.6157833,,,,23
551,Нижнемарьино,Нижнемарьино,Село,51.2234583,39.4928194,,,,1190
552,Нижний Икорец,Нижний Икорец,Село,50.9793111,39.7107583,,,,1696
553,Николаевка (Лискинский район),Николаевка,Село,50.9,39.806,,,,80
554,Никольский (Лискинский район),Никольский,Хутор,50.944325,39.5721778,,,,652
555,Новая Грань,Новая Грань,Хутор,50.8723361,39.6716194,,,,14
556,Новозадонский,Новозадонский,Хутор,51.12389,39.3125,,,,205
557,Новониколаевский (Воронежская область),Новониколаевский,Хутор,51.10889,39.24889,,,,
558,Осинки (Лискинский район),Осинки,Хутор,51.2420861,39.2586361,,,,21
559,Первое Мая (Воронежская область),Первое Мая,Хутор,50.8912333,39.594028,,,,3
560,Переезжее,Переезжее,Село,50.9169639,39.75725,,,,
561,Песковатка (Лискинский район),Песковатка,Село,51.0638833,39.7934,,,,
562,Петровское (Лискинский район),Петровское,Село,50.8547389,39.6153139,,,,
563,Петропавловка (Лискинский район),Петропавловка,Село,51.0043667,39.1986444,,,,
564,Подлесный (Лискинский район),Подлесный,Хутор,51.01528,39.38667,,,,
565,Попасное (Лискинский район),Попасное,Хутор,50.8645444,39.4763972,,,,
566,Посёлок 2-го отделения совхоза «2-я Пятилетка»,2-го отделения совхоза «2-я Пятилетка»,Посёлок,51.06694,39.58083,,,,65
567,Посёлок санатория имени Цюрупы,санатория имени Цюрупы,Посёлок,51.0304333,39.7807944,,,,489
568,Посёлок совхоза «2-я Пятилетка»,совхоза «2-я Пятилетка»,Посёлок,51.07778,39.53528,,,,1161
569,Почепское,Почепское,Село,51.18722,39.47139,,,,1130
570,Прияр,Прияр,Хутор,50.7878194,39.8587333,,,,217
571,Прогонный (Воронежская область),Прогонный,Хутор,51.1626222,39.3960028,1959,,,
572,Путчино (Воронежская область),Путчино,Хутор,50.8642472,39.384775,,,,
573,Пухово (Воронежская область),Пухово,Село,50.8562861,39.4262722,,,,
574,Рождествено (Воронежская область),Рождествено,Село,51.2475972,39.5371083,,,,
575,Свобода (Лискинский район),Свобода,Хутор,50.81972,39.73583,,,,6
576,Солонцы (Лискинский район),Солонцы,Хутор,51.0154778,39.7698417,,,,1
577,Среднеикорецкой больницы,Среднеикорецкой больницы,Посёлок,51.0550917,39.7959333,,,,26
578,Средний Икорец,Средний Икорец,Село,51.07361,39.75333,неизвестно,,,4946
579,Старая Покровка (Воронежская область),Старая Покровка,Хутор,51.01056,39.42,,,,
580,Старая Хворостань,Старая Хворостань,Село,51.17361,39.3025,,,,
581,Сторожевое 2-е,Сторожевое 2-е,Село,51.1133639,39.6566444,,,,
582,Стрелка (Воронежская область),Стрелка,Хутор,51.0442722,39.7622889,,,,265
583,Студёновка (Лискинский район),Студёновка,Хутор,51.1522583,39.3860472,,,,89
584,Титчиха (хутор),Титчиха,Хутор,51.174275,39.264,,,,
585,Тресоруково,Тресоруково,Село,51.2109528,39.5185694,,,,
586,Троицкое (Лискинский район),Троицкое,Село,51.08111,39.23444,,,,1019
587,Фёдоровский (Воронежская область),Фёдоровский,Хутор,51.1193278,39.775175,,,,79
588,Шепелев (хутор),Шепелев,Хутор,50.9003,39.3724139,,,,21
589,Щучье (Лискинский район),Щучье,Село,50.9381139,39.7385667,,,,1029
590,Андреевка (Нижнедевицкий район),Андреевка,Деревня,51.6825389,38.5273028,,,,360
591,Афонино (Воронежская область),Афонино,Хутор,51.6762417,38.4752889,,,,25
592,Бобров (Нижнедевицкий район),Бобров,Хутор,51.4383694,38.5279889,,,,1
593,Большая Мездрянка,Большая Мездрянка,Хутор,51.4016333,38.5979389,,,,9
594,Бор (Нижнедевицкий район),Бор,Село,51.5109194,38.4005861,,,,21
595,Верхнее Турово,Верхнее Турово,Село,51.6126972,38.585325,,,,1384
596,Верховье (Воронежская область),Верховье,Хутор,51.2830306,38.5055472,,,,0
597,Вязноватовка,Вязноватовка,Село,51.5772,38.4685944,,,,1016
598,Глазово (Нижнедевицкий район),Глазово,Село,51.5041722,38.5051278,,,,782
599,Губаново (Воронежская область),Губаново,Хутор,51.663861,38.3389889,,,,23
600,Дмитриевский (Воронежская область),Дмитриевский,Хутор,51.2835222,38.3646278,,,,297
601,Долгий (Воронежская область),Долгий,Хутор,51.312325,38.5121639,,,,0
602,Дружба (Нижнедевицкий район),Дружба,Хутор,51.26015,38.5486583,,,,7
603,Золотой (Воронежская область),Золотой,Хутор,51.4081056,38.559925,,,,0
604,Каменный Буерак (Воронежская область),Каменный Буерак,Хутор,51.3828528,38.3114028,,,,10
605,Ключи (Нижнедевицкий район),Ключи,Хутор,51.2641167,38.5829833,,,,1
606,Князев (хутор),Князев,Хутор,51.6504083,38.4770056,,,,21
607,Колесников (Воронежская область),Колесников,Хутор,51.4563917,38.4837083,,,,0
608,Комяга (хутор),Комяга,Хутор,51.4344833,38.4402389,,,,0
609,Курбатово (Воронежская область),Курбатово,Посёлок,51.6470972,38.5829222,,,,2068
610,Кучугуры (Воронежская область),Кучугуры,Село,51.5968778,38.3146139,,,,475
611,Лавров (Воронежская область),Лавров,Хутор,51.426139,38.5647333,,,,13
612,Лебяжье (Нижнедевицкий район),Лебяжье,Село,51.3324139,38.3457694,,,,63
613,Лог (Воронежская область),Лог,Село,51.575917,38.3692028,,,,222
614,Малиновка (Нижнедевицкий район),Малиновка,Хутор,51.686275,38.4285972,,,,0
615,Михнёво (Воронежская область),Михнёво,Село,51.4735472,38.55889,,,,470
616,Моховой (Воронежская область),Моховой,Хутор,51.4125889,38.405222,,,,14
617,Нижнедевицк (посёлок),Нижнедевицк,Посёлок,51.685,38.32472,,,,870
618,Нижнедевицк (село),Нижнедевицк,Село,51.54833,38.36861,,XVII век,,5656
619,Нижнее Турово,Нижнее Турово,Село,51.5350389,38.6138194,1648 год.,1648,,488
620,Новая Ольшанка (Воронежская область),Новая Ольшанка,Село,51.6494222,38.3918194,,,,514
621,Острянка,Острянка,Село,51.29194,38.40472,,,,
622,Парный (хутор),Парный,Хутор,51.6122694,38.311525,,,,2
623,Парточки (Воронежская область),Парточки,Хутор,51.5849028,38.273417,,,,
624,Першино (Воронежская область),Першино,Село,51.4953722,38.3799194,,,,
625,Петровка (Нижнедевицкий район),Петровка,Посёлок,51.5135972,38.4526,,,,
626,Плотницкий (хутор),Плотницкий,Хутор,51.4289278,38.600775,19-20 век,,,14
627,Подорожное (Воронежская область),Подорожное,Хутор,51.67972,38.34333,,,,
628,Поляна (Нижнедевицкий район),Поляна,Хутор,51.67667,38.35583,,,,
629,Посёлок совхоза «Кучугуровский»,Совхоза «Кучугуровский»,Посёлок,51.4208556,38.3196417,,,,
630,Посёлок совхоза «Нижнедевицкий»,Совхоза «Нижнедевицкий»,Посёлок,51.625,38.246,,,,
631,Проточный (Воронежская область),Проточный,Хутор,51.6995,38.4645,,,,
632,Семёнов (Воронежская область),Семёнов,Хутор,51.2540917,38.4505694,,,,
633,Синие Липяги,Синие Липяги,Село,51.37845,38.4807528,,,,2357
634,Скупая Потудань (село),Скупая Потудань,Село,51.23528,38.49417,,,,
635,Скупой (хутор),Скупой,Хутор,51.3426528,38.6168778,XIX-XX век,,,3
636,Старых (хутор),Старых,Хутор,51.6667417,38.5911611,,,,
637,Сычёвка (Воронежская область),Сычёвка,Хутор,51.4286889,38.4017889,,,,
638,Фролов (Воронежская область),Фролов,Хутор,51.299525,38.3199417,,,,
639,Хвощеватовка,Хвощеватовка,Село,51.4098222,38.341575,,,,
640,Широкий (Нижнедевицкий район),Широкий,Хутор,51.644761,38.156308,,,,
641,2-го отделения совхоза «Масловский»,2-го отделения совхоза «Масловский»,Посёлок,51.5,39.44,,,,335
642,2-го отделения совхоза «Новоусманский»,2-го отделения совхоза «Новоусманский»,Посёлок,51.5010083,39.4373944,,,,189
643,Александровка (Новоусманский район),Александровка,Село,51.6014919,39.3261248,,,,550
644,Андреевка (Новоусманский район),Андреевка,Посёлок,51.7820528,39.7371197,,,,81
645,Бабяково,Бабяково,Село,51.68833,39.37278,1595,1595,,2678
646,Битюг (Воронежская область),Битюг,Посёлок,51.594517,39.764052,,,,17
647,Благодатный (Воронежская область),Благодатный,Посёлок,51.77388763,39.77916718,,,,0
648,Веневитинский,Веневитинский,Посёлок,51.8127456,39.3857998,,,,1
649,Волна-Шепелиновка,Волна-Шепелиновка,Посёлок,51.5955077,39.6243596,,,,20
650,Воля (Новоусманский район),Воля,Посёлок,51.76556,39.53722,,,,7803
651,Горенские Выселки,Горенские Выселки,Село,51.5502306,39.7474408,,,,589
652,Горки (Воронежская область),Горки,Село,51.7150002,39.5841675,,,,389
653,Дружелюбие (посёлок),Дружелюбие,Посёлок,51.54333496,39.5280571,,,,204
654,Казанская Хава,Казанская Хава,Село,51.5790429,39.7132587,,,,126
655,Крыловка (Воронежская область),Крыловка,Село,51.5181676,39.6640348,,,,161
656,Лекарственный,Лекарственный,Посёлок,51.4973489,39.5942652,,,,323
657,Лутовиновка (Воронежская область),Лутовиновка,Деревня,51.5524195,39.7032165,,,,9
658,Луч (Воронежская область),Луч,Посёлок,51.6098497,39.4881649,,,,32
659,Макарье (Воронежская область),Макарье,Село,51.77611,39.65361,,,,548
660,Маклок (Воронежская область),Маклок,Посёлок,51.811597,39.4142085,,,,15
661,Малые Горки (Воронежская область),Малые Горки,Посёлок,51.69388962,39.6016655,,,,44
662,Михайловка (Новоусманский район),Михайловка,Деревня,51.5037469,39.6713733,,,,688
663,Нечаевка (Воронежская область),Нечаевка,Посёлок,51.6294196,39.3530702,,,,246
664,Нижняя Катуховка,Нижняя Катуховка,Село,51.6837583,39.880375,,,,604
665,Никольское (Новоусманский район),Никольское,Посёлок,51.68972,39.75222,,1859,,52
666,Новая Усмань,Новая Усмань,Село,51.64389,39.41028,,1598,34.519 км² км²,29270
667,Новосёлки (Воронежская область),Новосёлки,Посёлок,51.596833,39.7830111,,,,
668,Орлово (Воронежская область),Орлово,Село,51.75139,39.59417,1645,,,5427
669,Отрадное (Новоусманский район),Отрадное,Посёлок,51.6567917,39.334944,1968,,,4581
670,Парусное (Воронежская область),Парусное,Деревня,51.5868417,39.5216846,,,,920
671,Петропавловка (Новоусманский район),Петропавловка,Посёлок,51.66806,39.74722,,XVIII век,,125
672,Плясово-Китаево,Плясово-Китаево,Посёлок,51.7125,39.66944,,,,2
673,Плясово-Снежково,Плясово-Снежково,Посёлок,51.67944,39.64278,,,,15
674,Подклетное (Новоусманский район),Подклетное,Деревня,51.5885892,39.4638348,,,,179
675,Посёлок совхоза «Воронежский»,Совхоза «Воронежский»,Посёлок,51.6704778,39.2980444,,,,1870
676,Посёлок южного отделения совхоза имени Дзержинского,Южного отделения совхоза имени Дзержинского,Посёлок,51.72639,39.71528,,,,186
677,Ракитное (Воронежская область),Ракитное,Посёлок,51.7913444,39.5263417,,,,
678,Рогачёвка (Воронежская область),Рогачёвка,Село,51.5175,39.56472,,,,1820
679,Рождественская Хава,Рождественская Хава,Село,51.65667,39.69972,1706,,,2357
680,Рыкань,Рыкань,Село,51.62083,39.55194,1690,,,3052
681,Садовый (Воронежская область),Садовый,Посёлок,51.5109054,39.6842051,,,,205
682,Софьино (Воронежская область),Софьино,Посёлок,51.51833344,39.39777756,,,,0
683,Стахановский (Воронежская область),Стахановский,Посёлок,51.7808315,39.4061296,,,,19
684,Тамлык (посёлок),Тамлык,Посёлок,51.5633316,39.538887,,,,7
685,Тимирязево (Новоусманский район),Тимирязево,Посёлок,51.57778,39.65,,,,750
686,Трудовое (Воронежская область),Трудовое,Посёлок,51.7647904,39.7247815,,,,512
687,Трудолюбовка (Воронежская область),Трудолюбовка,Село,51.65527725,39.88305664,,,,101
688,Успенская Хава,Успенская Хава,Посёлок,51.6019459,39.682762,,,,15
689,Ушановка,Ушановка,Село,51.5321074,39.6307754,,,,97
690,Хлебное (Воронежская область),Хлебное,Село,51.61263,39.808779,1806,,,839
691,Хреновое (Новоусманский район),Хреновое,Село,51.66528,39.58444,,,,999
692,Шуберское,Шуберское,Посёлок,51.7541335,39.4325387,,,,2150
693,Ёлка (Воронежская область),Ёлка,Посёлок,51.129,41.2814,,,,0
694,Аверинка (Воронежская область),Аверинка,Посёлок,50.85,41.37,,,,51
695,Алексеевский (Новохопёрский район),Алексеевский,Посёлок,51.1083,41.3814,,,,22
696,Алфёровка (Воронежская область),Алфёровка,Село,51.2,41.68,,,,713
697,Башковский,Башковский,Посёлок,51.238,41.25,,,,22
698,Берёзовка (Новохопёрский район),Берёзовка,Посёлок,51.06,41.24,,,,352
699,Богдань (Воронежская область),Богдань,Хутор,51.165,41.818,,,,39
700,Большевик (Воронежская область),Большевик,Посёлок,51.0212055,41.6102886,,,,171
701,Бороздиновский,Бороздиновский,Посёлок,51.207,41.34,,,,675
702,Бурляевка,Бурляевка,Село,50.99611,41.33667,,,,351
703,Варварино (Воронежская область),Варварино,Посёлок,51.2093012,41.7204093,,,,165
704,Владимировка (Новохопёрский район),Владимировка,Посёлок,50.95139,41.29667,,,,7
705,Глинкино (Воронежская область),Глинкино,Посёлок,51.1133093,41.8092012,,,,1
706,Горелые Ольхи,Горелые Ольхи,Посёлок,51.187,41.176,,,,5
707,Димитровский (Воронежская область),Димитровский,Посёлок,51.1344667,41.146775,,,,82
708,Долгинка,Долгинка,Посёлок,51.0480987,41.045984,,,,90
709,Долиновский,Долиновский,Посёлок,50.993,41.102,,,,385
710,Елань-Колено,Елань-Колено,Село,51.15,41.21667,1725,1712,"8,8 км²",4
711,Елань-Коленовский,Елань-Коленовский,Посёлок городского типа,51.16333,41.14639,,1936,,3493
712,Жёлтые Пруды,Жёлтые Пруды,Посёлок,50.984,41.216,,,,49
713,Замельничный,Замельничный,Хутор,51.11,41.66,,,,327
714,Заря (Новохопёрский район),Заря,Посёлок,51.09,41.247,,,,6
715,Ивановка (Новохопёрский район),Ивановка,Деревня,51.0742478,41.4151096,,,,13
716,Калиново (Новохопёрский район),Калиново,Посёлок,51.1684458,41.5944314,,,,20
717,Каменка-Садовка,Каменка-Садовка,Село,51.03,41.63,в 1880 году,,,607
718,Камышановский,Камышановский,Посёлок,50.935,41.385,,,,147
719,Карачановский,Карачановский,Посёлок,50.9561828,41.1997819,,,,74
720,Красное (Новохопёрский район),Красное,Село,51.16,41.5,1710,,,2382
721,Ленинский (Воронежская область),Ленинский,Посёлок,51.287,41.264,,,,245
722,Лепёхинка (Воронежская область),Лепёхинка,Посёлок,50.9951169,41.0250494,,,,74
723,Михайловский (Новохопёрский район),Михайловский,Посёлок,50.9117833,41.2844,,,,435
724,Московский 2-й,Московский 2-й,Посёлок,51.298,41.218,,,,58
725,Некрылово,Некрылово,Посёлок,51.13,41.5,,,,762
726,Некрыловский,Некрыловский,Посёлок,51.05222,41.27528,,,,141
727,Новоильменский,Новоильменский,Посёлок,51.146994,41.7796325,,,,31
728,Новопокровский (Воронежская область),Новопокровский,Посёлок,51.25,41.31,,,,436
729,Новоржавец,Новоржавец,Посёлок,51.26,41.57,,,,29
730,Новохопёрск,Новохопёрск,Город,51.1,41.61667,в 1710 году,,14[1] км²,5855
731,Новохопёрский,Новохопёрский,Посёлок городского типа,51.07361,41.56806,,,,7771
732,Озёрный (Воронежская область),Озёрный,Посёлок,51.18908,41.8200588,,,,239
733,Пески (Новохопёрский район),Пески,Посёлок,51.1453861,41.1581083,,,,
734,Пионерский (Воронежская область),Пионерский,Посёлок,50.85,41.28,,,,135
735,Плаутино (Воронежская область),Плаутино,Посёлок,51.0603863,41.6275406,,,,22
736,Подгорное (Новохопёрский район),Подгорное,Село,51.37,41.1488,1762 год,,,762
737,Подосиновка (Воронежская область),Подосиновка,Село,51.125,41.35,,,,449
738,Полежаевский,Полежаевский,Посёлок,50.89,41.2,,,,444
739,Половцево (посёлок),Половцево,Посёлок,51.1171542,41.7289925,,,,585
740,Половцево (посёлок железнодорожной станции),Половцево,Железнодорожная станция,51.11,41.71,,,,78
741,Пыховка (село),Пыховка,Село,51.01944,41.50417,,,,1243
742,Русаново (Новохопёрский район),Русаново,Село,51.0984008,41.4818859,,,,444
743,Синичкин (посёлок),Синичкин,Посёлок,50.8785,41.2435,,,,10
744,Согласие (Воронежская область),Согласие,Посёлок,51.16,41.13,,,,1
745,Соколовский (Новохопёрский район),Соколовский,Посёлок,50.9898808,41.1534977,,,,66
746,Соловки (Воронежская область),Соловки,Посёлок,51.137,41.135,,,,9
747,Солонцов (посёлок),Солонцов,Посёлок,50.88,41.16,,,,29
748,Сорокинский,Сорокинский,Посёлок,51.203,41.277,,,,30
749,Сосновский (Воронежская область),Сосновский,Посёлок,51.218,41.237,,,,26
750,Студёный (Воронежская область),Студёный,Посёлок,51.141,41.145,,,,57
751,Терновский (Воронежская область),Терновский,Посёлок,51.0954917,41.1004833,,,,794
752,Троицкое (Новохопёрский район),Троицкое,Село,51.276,41.4906,,,,1965
753,Тулучеевка (посёлок),Тулучеевка,Посёлок,50.9230557,41.1159038,,,,48
754,Централь (посёлок),Централь,Посёлок,50.92,41.37,,,,700
755,Шевлягинский,Шевлягинский,Посёлок,51.22,41.31,,,,50
756,Щепетное,Щепетное,Посёлок,51.006,41.272,,,,0
757,Ярки (Новохопёрский район),Ярки,Село,51.3475,41.14889,1811,,,1720
758,Андриановка (Воронежская область),Андриановка,Хутор,50.444,39.19,,,,118
759,Большие Базы,Большие Базы,Посёлок,50.27,39.29,,,,2572
760,Бугаевка (Ольховатский район),Бугаевка,Посёлок,50.31,39.31,,,,1717
761,Высокий (Ольховатский район),Высокий,Хутор,50.47,39.29,,,,49
762,Гвоздовка (Воронежская область),Гвоздовка,Село,50.29778,39.15444,,,,579
763,Долгенький,Долгенький,Хутор,50.333,39.218,,,,0
764,Дроздово (Воронежская область),Дроздово,Хутор,50.334,39.39,,,,482
765,Ерёмино (Воронежская область),Ерёмино,Хутор,50.464,39.047,,,,1
766,Заболотовка (Воронежская область),Заболотовка,Посёлок,50.28,39.32,,,,3156
767,Загирянка,Загирянка,Посёлок,50.278,39.255,,,,250
768,Караяшник (Воронежская область),Караяшник,Слобода,50.42,39.21,,,,626
769,Кирьянов (хутор),Кирьянов,Хутор,50.524,39.22,,,,27
770,Колесниково (Воронежская область),Колесниково,Хутор,50.48,39.08,,,,95
771,Комсомольское (Ольховатский район),Комсомольское,Посёлок,50.305,39.45,,,,42
772,Конное (Воронежская область),Конное,Посёлок,50.16389,39.18528,,начало XX века,,24
773,Копаная 1-я,Копаная 1-я,Слобода,50.456,39.08,,,,293
774,Копаная 2-я,Копаная 2-я,Слобода,50.454,39.06,,,,90
775,Костово (Воронежская область),Костово,Село,50.18667,39.16389,,,,695
776,Кошарный,Кошарный,Хутор,50.13389,39.20667,,начало XX века,,1
777,Кравцовка (Воронежская область),Кравцовка,Хутор,50.4,39.08,,,,51
778,Красный Курган (Ольховатский район),Красный Курган,Посёлок,50.1975,39.23194,,,,33
779,Красный Октябрь (Воронежская область),Красный Октябрь,Хутор,50.339,39.225,,,,0
780,Кривая Берёза (Воронежская область),Кривая Берёза,Хутор,50.436,39.021,,,,46
781,Крюков (Воронежская область),Крюков,Хутор,50.415,39.234,,,,81
782,Кулишовка (посёлок),Кулишовка,Посёлок,50.349,39.282,,,,83
783,Лесное Уколово (Воронежская область),Лесное Уколово,Хутор,50.48,39.294,,,,1
784,Лимарев (Воронежская область),Лимарев,Хутор,50.388054,39.081974,,,,219
785,Малые Базы,Малые Базы,Посёлок,50.26,39.32,,,,1660
786,Марченковка,Марченковка,Слобода,50.27,39.22,,,,619
787,Марьевка (Ольховатский район),Марьевка,Слобода,50.30667,39.14944,в 1740 году,,,590
788,Назаровка (Воронежская область),Назаровка,Хутор,50.3,39.1,,,,476
789,Неровновка,Неровновка,Слобода,50.1475,39.24056,1813,,,140
790,Новая Сотня,Новая Сотня,Хутор,50.45,39.12,,,,169
791,Новогеоргиевка (Ольховатский район),Новогеоргиевка,Хутор,50.383,39.14,,,,29
792,Новодмитриевка (Воронежская область),Новодмитриевка,Хутор,50.364,39.07,,,,91
793,Новокараяшник,Новокараяшник,Слобода,50.395,39.235,,,,192
794,Новокулишовка,Новокулишовка,Посёлок,50.35,39.28,,,,76
795,Новомосковский,Новомосковский,Хутор,50.436,39.199,,,,30
796,Новохарьковка (Воронежская область),Новохарьковка,Слобода,50.38,39.27,,,,805
797,Ольховатка (Ольховатский район),Ольховатка,Посёлок городского типа,50.28611,39.29778,1702,,,3287
798,Первомайское (Ольховатский район),Первомайское,Посёлок,50.358,39.386,,,,109
799,Песчаный (Ольховатский район),Песчаный,Хутор,50.23,39.393,,,,64
800,Политотдельское (Воронежская область),Политотдельское,Посёлок,50.39,39.42,,,,172
801,Постоялый,Постоялый,Хутор,50.41,39.4,,,,262
802,Посёлок имени Ленина (Воронежская область),Посёлок имени Ленина,Посёлок,50.479,39.166,,,,85
803,Раковка (Воронежская область),Раковка,Посёлок,50.337,39.286,,,,79
804,Ремезово (Воронежская область),Ремезово,Хутор,50.257,39.375,,,,69
805,Родина Героя,Родина Героя,Хутор,50.11972,39.18222,,1816,,123
806,Рыбный (Воронежская область),Рыбный,Хутор,50.457,39.175,,,,155
807,Саловка (Воронежская область),Саловка,Посёлок,50.31,39.3,,,,339
808,Степное (Воронежская область),Степное,Посёлок,50.16667,39.11667,,,,21
809,Шапошниковка,Шапошниковка,Слобода,50.23667,39.37722,,,,1736
810,Юрасовка (Воронежская область),Юрасовка,Слобода,50.49,39.18,нач. 18 века,1721,,764
811,Ясиновка (Воронежская область),Ясиновка,Хутор,50.305,39.08,,,,206
812,Аверино (Воронежская область),Аверино,Хутор,51.02083,39.11722,,,,0
813,Александровка (Острогожский район),Александровка,Хутор,50.920259,39.227425,,,,177
814,Ближнее Стояново,Ближнее Стояново,Хутор,50.81417,39.08694,,,,580
815,Ближняя Полубянка,Ближняя Полубянка,Село,50.75222,39.20389,XVIII век,,,385
816,Болдыревка (Воронежская область),Болдыревка,Село,51.12639,39.0525,,,,496
817,Бузенки,Бузенки,Хутор,51.21639,38.94472,,,,146
818,Веретье (Воронежская область),Веретье,Село,50.78056,38.86944,,,,704
819,Верхний Ольшан,Верхний Ольшан,Село,50.76889,38.87944,,,,167
820,Весёлый (Воронежская область),Весёлый,Хутор,51.18667,39.07778,,,,13
821,Владимировка (Острогожский район),Владимировка,Хутор,50.67778,38.98306,,,,152
822,Волошино (Воронежская область),Волошино,Село,50.874,38.94,,,,582
823,Гнилое (Воронежская область),Гнилое,Село,50.81333,39.06667,,,,1028
824,Гослесопитомника (Острогожский район),Гослесопитомника,Посёлок,51.00333,39.015,,,,1
825,Гостинный,Гостинный,Хутор,51.01083,39.1375,,,,9
826,Грушевая Поляна,Грушевая Поляна,Посёлок,50.84139,38.93944,,,,276
827,Губаревка (Воронежская область),Губаревка,Хутор,50.84861,38.91889,,,,34
828,Дальняя Полубянка,Дальняя Полубянка,Село,50.72667,39.03389,,,,401
829,Девица (Острогожский район),Девица,Село,51.0775,39.11917,,,,822
830,Десятки,Десятки,Хутор,51.16306,39.00278,,,,15
831,Должик (Острогожский район),Должик,Хутор,50.82668,39.209467,,,,350
832,Дубовой (Воронежская область),Дубовой,Хутор,51.14667,39.02306,,,,156
833,Ездочное (Воронежская область),Ездочное,Село,51.02694,38.97167,,,,164
834,Завершье (Воронежская область),Завершье,Село,50.97083,38.86083,,,,123
835,Засосна (Воронежская область),Засосна,Хутор,50.77056,38.98167,,,,78
836,Ивановский (Воронежская область),Ивановский,Хутор,51.03194,39.16056,,,,27
837,Калинин (Воронежская область),Калинин,Хутор,51.04972,39.05472,,,,33
838,Клин (Воронежская область),Клин,Хутор,51.04694,39.045,,,,0
839,Кодубец,Кодубец,Хутор,50.821484,39.266241,,,,25
840,Коловатовка,Коловатовка,Деревня,50.7475,38.8825,,,,55
841,Коротояк (Воронежская область),Коротояк,Село,50.9821889,39.1865306,,1642,,1904
842,Кривая Поляна,Кривая Поляна,Село,50.64833,39.14417,,,,330
843,Криница (Острогожский район),Криница,Село,50.88694,39.24111,XVIII век,,,445
844,Литвиновка (Воронежская область),Литвиновка,Хутор,50.812026,39.244125,,,,5
845,Лобкин,Лобкин,Хутор,50.9355658,39.0147686,,,,1
846,Луки (Воронежская область),Луки,Посёлок,50.939589,39.241816,,,,736
847,Мастюгино,Мастюгино,Село,51.1969972,39.0410333,1654,,,657
848,Мостище (Воронежская область),Мостище,Хутор,51.03056,39.10056,,,,7
849,Нижний Ольшан,Нижний Ольшан,Село,50.75833,38.92222,в 1644 году,,,884
850,Новая Мельница (Острогожский район),Новая Мельница,Село,50.805,39.02,,,,316
851,Новая Осиновка (Воронежская область),Новая Осиновка,Село,50.785,38.94417,,,,457
852,Ново-Успенка,Ново-Успенка,Хутор,51.17194,39.08667,,,,297
853,Острогожск,Острогожск,Город,50.86667,39.06667,в 1652 году,,22[1] км²,31829
854,Павловский (Воронежская область),Павловский,Посёлок,50.855,39.15278,,,,28
855,Паленин,Паленин,Хутор,50.65111,39.11139,,,,101
856,Пахолок,Пахолок,Хутор,50.78611,39.215,,,,17
857,Пески-Харьковские,Пески-Харьковские,Посёлок,50.945855,39.267652,,,,92
858,Петренково (Воронежская область),Петренково,Село,50.78972,39.13111,,,,543
859,Петропавловка (Острогожский район),Петропавловка,Село,51.005,39.19917,,,,678
860,Покровка (Острогожский район),Покровка,Село,50.97,39.19,,,,1746
861,Посёлок 1-го отделения совхоза «Острогожский»,1-го отделения совхоза «Острогожский»,Посёлок,50.86444,38.73111,,,,76
862,Посёлок 1-го отделения совхоза «Победа»,1-го отделения совхоза «Победа»,Посёлок,50.83944,39.10333,,,,347
863,Посёлок 2-го отделения совхоза «Острогожский»,2-го отделения совхоза «Острогожский»,Посёлок,50.86361,38.89,,,,37
864,Посёлок 2-го отделения совхоза «Победа»,2-го отделения совхоза «Победа»,Посёлок,50.83972,39.13222,,,,536
865,Посёлок 3-го отделения совхоза «Победа»,3-го отделения совхоза «Победа»,Посёлок,50.83167,39.11583,,,,647
866,Посёлок Центрального отделения совхоза «Острогожский»,Центрального отделения совхоза «Острогожский»,Посёлок,50.88444,38.86222,,,,653
867,Прилепы (Острогожский район),Прилепы,Хутор,50.66417,39.14722,,,,5
868,Прокопец,Прокопец,Хутор,50.70833,39.12833,,,,24
869,Растыкайловка,Растыкайловка,Хутор,50.6575,39.16389,,,,131
870,Родники (Острогожский район),Родники,Хутор,51.16722,38.97889,,,,8
871,Русская Тростянка,Русская Тростянка,Село,50.8775,38.76583,,,,405
872,Рыбное (Воронежская область),Рыбное,Село,50.89027786,39.16249847,в 1766 году,,,427
873,Самопомощь (хутор),Самопомощь,Хутор,50.8484027,39.1202169,,,,47
874,Сельхозтехника (Воронежская область),Сельхозтехника,Посёлок,50.84667,39.11444,,,,375
875,Сибирский (Воронежская область),Сибирский,Посёлок,50.79528,39.0375,,,,54
876,Солдатское (Воронежская область),Солдатское,Село,51.04444,38.97444,,,,989
877,Средне-Воскресенское,Средне-Воскресенское,Село,50.88361,39.18167,,,,72
878,Стрелица (Острогожский район),Стрелица,Посёлок,50.86389,38.81139,,,,28
879,Таволжанка (Острогожский район),Таволжанка,Посёлок,50.89417,39.20944,,,,37
880,Труд (Воронежская область),Труд,Посёлок,50.935,39,,,,61
881,Урыв-Покровка,Урыв-Покровка,Село,51.1138833,39.1643528,,,,1647
882,Успенское (Воронежская область),Успенское,Село,50.9625,39.1775,,,,257
883,Хохол-Тростянка,Хохол-Тростянка,Село,50.80056,38.77917,,,,571
884,Шинкин,Шинкин,Хутор,50.71417,38.88861,,,,166
885,Шубное (село),Шубное,Село,50.85722,38.86306,,,,1061
886,Элеваторный (Воронежская область),Элеваторный,Посёлок,50.83083,39.09889,,,,477
887,Яблочный (Воронежская область),Яблочный,Хутор,51.155,38.99833,,,,50
888,"Александровка (Павловский район, Воронежская область)",Александровка,Село,50.5780044,40.3130436,,,,1372
889,Александровка Донская,Александровка Донская,Село,50.516406,40.072691,,,,1533
890,Антиповка (Воронежская область),Антиповка,Деревня,50.707997,40.016137,,,,14
891,Бабка (Воронежская область),Бабка,Село,50.559033,39.96654,1615 год,,,686
892,Безымянный (Воронежская область),Безымянный,Хутор,50.678345,39.993128,,,,147
893,Белая Деревня,Белая Деревня,Посёлок,50.502383,40.242384,,,,35
894,Берёзки (Воронежская область),Берёзки,Село,50.586593,40.122665,,2-я половина XVIII века,,282
895,Берёзово (Павловский район),Берёзово,Село,50.724066,39.952572,,,,300
896,Большая Казинка,Большая Казинка,Село,50.245522,40.079028,,,,1294
897,Варваровка (Павловский район),Варваровка,Село,50.29361,40.22111,,,,23
898,Воронцовка (Воронежская область),Воронцовка,Село,50.61333,40.35222,,,,5
899,Гаврильск,Гаврильск,Село,50.431175,40.3550889,,,,929
900,Гаврильские Сады,Гаврильские Сады,Село,50.429479,40.175462,,,,275
901,Грань (Воронежская область),Грань,Село,50.73056,39.78167,,,,388
902,Данило (Павловский район),Данило,Хутор,50.57967,40.456949,,,,652
903,Елизаветовка (Павловский район),Елизаветовка,Село,50.459359,40.191892,,,,
904,Ерышёвка (Воронежская область),Ерышёвка,Село,50.691445,40.211152,1698,,,
905,Желдаковка,Желдаковка,Посёлок,50.324894,40.007935,,,,27
906,Заосередные Сады,Заосередные Сады,Посёлок,50.477328,40.139052,1935 год,,,371
907,Каменск (Воронежская область),Каменск,Посёлок,50.459806,40.413965,,,,492
908,Карла Маркса (Воронежская область),Карла Маркса,Посёлок,50.636314,40.012238,1918,,,38
909,Княжево (Воронежская область),Княжево,Село,50.499042,40.210443,,,,12
910,Копанки (Павловский район),Копанки,Посёлок,50.587431,40.208412,,,,7
911,Крицкий (хутор),Крицкий,Хутор,50.611159,40.006788,,,,23
912,Ливенка (Павловский район),Ливенка,Село,50.730009,40.230439,1708,,,1049
913,Лосево (Павловский район),Лосево,Село,50.67056,40.03889,1697 год,,,4398
914,Максимово (Воронежская область),Максимово,Хутор,50.742738,40.941111,,,,17
915,Малая Казинка (Воронежская область),Малая Казинка,Село,50.39162,40.294839,,,,60
916,Михайловка (Павловский район),Михайловка,Село,50.529258,40.238,,,,566
917,Момотов (село),Момотов,Село,50.539328,40.533701,,,,370
918,Николаевка (Павловский район),Николаевка,Село,50.273596,40.001099,,,,561
919,Новенький (Павловский район),Новенький,Посёлок,50.634172,40.30334,,,,143
920,Новомаксимово (Воронежская область),Новомаксимово,Хутор,50.76361,39.79889,,,,1
921,Павловск (Воронежская область),Павловск,Город,50.45,40.06667,в 1709 году,,"город - 8,22 км²  МО - 61,62[1] км²",24453
922,Переездной,Переездной,Хутор,50.561935,40.645281,,,,182
923,Пески (Павловский район),Пески,Село,50.724066,39.952572,,,,490
924,Петровка (Павловский район),Петровка,Село,50.527165,40.262059,,,,1917
925,Подгоры (Воронежская область),Подгоры,Хутор,50.65194,39.95889,,,,1
926,Поддубный (Воронежская область),Поддубный,Хутор,50.619467,40.167011,,,,158
927,Покровка (Павловский район),Покровка,Село,50.66889,39.84722,,,,928
928,Посёлок имени Жданова (Воронежская область),Имени Жданова,Посёлок,50.490681,40.090093,1920-е годы,,,144
929,Преображенка (Воронежская область),Преображенка,Село,50.413679,40.208421,,,,72
930,Рассвет (Воронежская область),Рассвет,Посёлок,50.491123,40.199007,,,,14
931,Русская Буйловка,Русская Буйловка,Село,50.36083,40.06,,,,2138
932,Ступино (Павловский район),Ступино,Хутор,50.62556,39.91083,,,,15
933,Сухое Данило,Сухое Данило,Хутор,50.56019,40.554785,,,,26
934,Сын Революции,Сын Революции,Хутор,50.569501,40.280408,1928,,,0
935,Тумановка (Воронежская область),Тумановка,Хутор,50.736206,40.266713,в 1840 году,,,50
936,Хвощеватый (Павловский район),Хвощеватый,Хутор,50.707517,40.977051,,,,17
937,Царёвка (Воронежская область),Царёвка,Село,50.408191,40.314072,,,,73
938,Черкасское (Воронежская область),Черкасское,Село,50.66444,39.92639,,,,368
939,Чугуновка (Воронежская область),Чугуновка,Хутор,50.724066,39.952572,,,,53
940,Шкурлат 3-й,Шкурлат Третий,Посёлок,50.3644667,40.2411611,,,,540
941,Шувалов (Воронежская область),Шувалов,Село,50.512311,40.491831,,,,807
942,Агарков (посёлок),Агарков,Посёлок,51.44306,40.0275,,,,28
943,Александровка (Панинский район),Александровка,Село,51.47639,39.94111,,,,513
944,Александровка 2-я (Панинский район),Александровка 2-я,Село,51.77528,40.40611,,,,7
945,Алое Поле (посёлок),Алое Поле,Посёлок,51.6112583,40.0528556,,,,574
946,Барсучье (Воронежская область),Барсучье,Посёлок,51.47639,39.81806,,,,1
947,Березняги (Панинский район),Березняги,Посёлок,51.6525,40.05389,XX век,,,11
948,Богородицкое (Воронежская область),Богородицкое,Посёлок,51.7120199,40.0673532,,,,35
949,Большие Ясырки (Панинский район),Большие Ясырки,Посёлок,51.68333,40.27583,XX век,,,223
950,Большой Мартын (село),Большой Мартын,Село,51.39417,40.02389,,,,854
951,Борщёво (Панинский район),Борщёво,Село,51.68972,40.49528,,,,357
952,Верхняя Катуховка,Верхняя Катуховка,Село,51.67192,39.93942,,1841,,447
953,Георгиевка (Воронежская область),Георгиевка,Село,51.66722,40.05111,,,,117
954,Дмитриевка (Панинский район),Дмитриевка,Село,51.7431738,40.0853776,,,,356
955,Ивановка (Панинский район),Ивановка,Село,51.65083,40.30111,,,,107
956,Ивановка 1-я (Воронежская область),Ивановка 1-я,Село,51.644201,39.9443579,,,,301
957,Икорецкое,Икорецкое,Посёлок,51.41111,39.95278,,,,1
958,Казиновка,Казиновка,Посёлок,51.64639,40.01333,XX век,,,83
959,Калининский (Воронежская область),Калининский,Посёлок,51.57583,40.32583,,,,120
960,Калмычёк (Панинский район),Калмычёк,Село,51.68556,40.11556,,,,174
961,Капканчиковые Дворики,Капканчиковые Дворики,Посёлок,51.45833,39.80306,,,,14
962,Катуховские Выселки 2-е,Катуховские Выселки 2-е,Посёлок,51.61028,40.02528,XX век,,,45
963,Кировское (Воронежская область),Кировское,Посёлок,51.53111,39.98472,,,,246
964,Козьминский (Воронежская область),Козьминский,Посёлок,51.48944,40.10694,,,,1
965,Красное (Панинский район),Красное,Село,51.74245,40.207088,,,,248
966,Красные Холмы (Воронежская область),Красные Холмы,Село,51.6224782,39.9228787,,,,231
967,Красный Лиман (Воронежская область),Красный Лиман,Село,51.52583,39.84194,,,,749
968,Красный Лиман 2-й,Красный Лиман 2-й,Село,51.44472,39.85111,,,,796
969,Криуша (Воронежская область),Криуша,Село,51.46333,40.04722,,,,725
970,Криушанские Выселки 1-е,Криушанские Выселки 1-е,Посёлок,51.44639,39.95722,,,,22
971,Майский (Воронежская область),Майский,Посёлок,51.5999918,39.9896228,,,,88
972,Малые Ясырки (Панинский район),Малые Ясырки,Посёлок,51.60306,40.08667,XX век,,,12
973,Малый Мартын (посёлок),Малый Мартын,Посёлок,51.36222,40.01361,,,,34
974,Мировка (Воронежская область),Мировка,Село,51.59028,40.08583,XX век,,,67
975,Михайловка 1-я (Воронежская область),Михайловка 1-я,Село,51.6381622,40.3820193,,,,607
976,Михайловка 2-я (Воронежская область),Михайловка 2-я,Село,51.739825,39.9909425,,,,162
977,Михайловский (Панинский район),Михайловский,Посёлок,51.61278,40.2725,,,,675
978,Мичуринский (Панинский район),Мичуринский,Посёлок,51.58639,40.21417,,,,258
979,Нащёкинские Выселки,Нащёкинские Выселки,Посёлок,51.46556,40.10417,,,,48
980,Никольское (Панинский район),Никольское,Село,51.62028,40.35889,,,,125
981,Никольское 1-е (Панинский район),Никольское 1-е,Посёлок,51.7282108,40.077331,,,,52
982,Никольское 2-е (Панинский район),Никольское 2-е,Посёлок,51.7397257,40.0594568,,,,0
983,Новоалександровка (Панинский район),Новоалександровка,Село,51.7279177,40.168333,,,,230
984,Новоданковский,Новоданковский,Посёлок,51.41333,39.89417,,,,13
985,Новоепифановка,Новоепифановка,Посёлок,51.43333,39.90806,,,,1
986,Новопокровка (Воронежская область),Новопокровка,Посёлок,51.74417,40.31306,,,,8
987,Новохреновое,Новохреновое,Село,51.5662528,39.9022056,,,,489
988,Октябрьский (Панинский район),Октябрьский,Посёлок,51.52833,40.06639,,,,806
989,Отрада (Воронежская область),Отрада,Посёлок,51.66667,40.18806,,,,116
990,Павловка (Панинский район),Павловка,Посёлок,51.48222,39.77056,,,,20
991,Пады (Воронежская область),Пады,Село,51.65583,40.45194,,,,224
992,Панино (Воронежская область),Панино,Посёлок городского типа,51.64806,40.13417,,1890,,5911
993,Партизан (Воронежская область),Партизан,Посёлок,51.52278,40.07694,,,,50
994,Первомайский (Панинский район),Первомайский,Посёлок,51.721269,40.154546,,,,259
995,Перелёшино,Перелёшино,Посёлок,51.737372,40.137442,,,,3964
996,Перелёшинский,Перелёшинский,Посёлок городского типа,51.71667,40.18333,,,,2566
997,Петровское (Панинский район),Петровское,Село,51.70528,40.21333,,,,361
998,Посёлок 3-го отделения племсовхоза «Победа Октября»,3-го отделения племсовхоза «Победа Октября»,Посёлок,51.45444,39.90111,,,,20
999,Посёлок 5-го отделения совхоза «Михайловский»,5-го отделения совхоза «Михайловский»,Посёлок,51.64722,40.21417,,,,63
1000,Посёлок Первомайского отделения конезавода № 11,Посёлок Первомайского отделения конезавода № 11,Посёлок,51.7296862,39.9442076,,,,303
1001,Посёлок совхоза «Первомайский»,Посёлок совхоза «Первомайский»,Посёлок,51.66833,40.23694,,,,1
1002,Пылёвка,Пылёвка,Посёлок,51.48833,39.695,,,,1
1003,Росташевка,Росташевка,Посёлок,51.58222,40.05472,XX век,,,53
1004,Сергеевка (Панинский район),Сергеевка,Село,51.5594361,40.2019894,,,,217
1005,Софьинка (Панинский район),Софьинка,Село,51.61556,40.13167,1910,,,131
1006,Тарасовка (Воронежская область),Тарасовка,Посёлок,51.47417,39.78583,,,,109
1007,Тимирязевский (Воронежская область),Тимирязевский,Посёлок,51.61889,40.1875,,,,207
1008,Тойда (посёлок),Тойда,Посёлок,51.58667,40.17639,,,,277
1009,Тойда 1-я,Тойда 1-я,Посёлок,51.54861,40.13694,,,,596
1010,Тойда 2-я,Тойда 2-я,Посёлок,51.58472,40.14111,,,,82
1011,Тойденский,Тойденский,Посёлок,51.53389,40.10861,,,,166
1012,Усманские Выселки,Усманские Выселки,Село,51.48417,39.73194,,,,93
1013,Фёдоровка (Панинский район),Фёдоровка,Поселок,51.7584902,40.243628,,,,8
1014,Хавенка (Воронежская область),Хавенка,Посёлок,51.70667,40.12917,,,,11
1015,Хитровка (Воронежская область),Хитровка,Село,51.725818,40.28024,,,,60
1016,Чернавка (Панинский район),Чернавка,Село,51.69417,40.38139,,,,563
1017,Шанинский,Шанинский,Посёлок,51.5375,40.14333,,,,16
1018,Шарко-Бакумовка,Шарко-Бакумовка,Посёлок,51.7249544,40.0865686,,,,5
1019,Щербачёвка (Воронежская область),Щербачёвка,Посёлок,51.75361,40.30611,,,,181
1020,"Александровка (Петропавловский район, Воронежская область)",Александровка,Хутор,50.06944,41.03056,,,,30
1021,Березняги (Петропавловский район),Березняги,Село,49.98833,41.09611,,,,569
1022,Берёзовый (Воронежская область),Берёзовый,Хутор,50.18556,40.98917,,,,0
1023,Бычок (Воронежская область),Бычок,Село,50.02472,40.77306,,,,972
1024,Глубокое (Воронежская область),Глубокое,Село,49.87389,40.94917,,,,228
1025,Гондарев,Гондарев,Хутор,50.06083,40.92861,,,,20
1026,Дедовка (Воронежская область),Дедовка,Село,49.8891667,40.9441667,в 1767 году,,,340
1027,Дедовочка,Дедовочка,Село,49.91139,40.93361,,,,78
1028,Замостье (Воронежская область),Замостье,Хутор,50.01583,40.82778,,,,459
1029,Индычий,Индычий,Хутор,50.2375,40.84361,,,,539
1030,Котовка (Воронежская область),Котовка,Хутор,49.96083,40.90472,,,,60
1031,Красносёловка (Воронежская область),Красносёловка,Село,50.1810917,40.8595972,,,,1502
1032,Краснофлотское (Воронежская область),Краснофлотское,Село,50.06806,41.22194,,,,1176
1033,Новобогородицкое,Новобогородицкое,Село,50.03639,40.97944,,,,731
1034,Новотроицкое (Петропавловский район),Новотроицкое,Село,50.1302778,41.0966667,в 1737 году,,,698
1035,Новый Лиман (Воронежская область),Новый Лиман,Село,49.94361,40.91944,,,,484
1036,Огарев (хутор),Огарев,Хутор,50.10417,41.31889,,,,167
1037,Пески (Петропавловский район),Пески,Село,50.2583306,40.8769389,,,,1243
1038,"Петропавловка (Петропавловский район, Воронежская область)",Петропавловка,Село,50.09694,40.87778,,,,5250
1039,Посёлок 1-го отделения совхоза «Старокриушанский»,1-го отделения совхоза «Старокриушанский»,Посёлок,50.2425,41.01111,,,,11
1040,Посёлок совхоза «Маяк»,Совхоза «Маяк»,Посёлок,50.09139,41.15722,,,,8
1041,Посёлок совхоза «Труд»,Совхоза «Труд»,Посёлок,50.15111,41.23944,,,,74
1042,Прогорелое,Прогорелое,Село,49.94611,40.8825,,,,135
1043,Рубеж (Воронежская область),Рубеж,Хутор,49.81194,41.04139,,,,1
1044,Старая Криуша,Старая Криуша,Село,50.19278,41.13056,,,,2544
1045,Старая Меловая,Старая Меловая,Село,50.2788083,40.8610083,1716,,,2109
1046,Фоменково (Воронежская область),Фоменково,Село,50.09,41.0533333,в 1701 году,,,277
1047,Червоно-Чехурский,Червоно-Чехурский,Хутор,50.07861,40.83333,,,,78
1048,Байчурово (село),Байчурово,Село,51.339425,42.6843917,,,,1577
1049,Взаимопомощь (Воронежская область),Взаимопомощь,Посёлок,51.35556,42.70139,,,,24
1050,Вихляевка (Воронежская область),Вихляевка,Село,51.26535,42.85663,,,,477
1051,Ильмень (Воронежская область),Ильмень,Село,51.30333,42.55444,,,,390
1052,Калмычёк (Поворинский район),Калмычёк,Посёлок,51.38556,42.8425,,,,32
1053,Каменка (Поворинский район),Каменка,Село,51.32139,42.76056,,,,397
1054,Кардаиловка,Кардаиловка,Село,51.24472,42.67472,,,,115
1055,Красное Знамя (Воронежская область),Красное Знамя,Посёлок,51.34583,42.80861,,,,14
1056,Кривченково,Кривченково,Посёлок,51.39306,42.81139,,,,26
1057,Мазурка (Воронежская область),Мазурка,Село,51.28556,42.57806,1790,,,786
1058,Моховое (Поворинский район),Моховое,Посёлок,51.16861,42.29639,,,,97
1059,Октябрьский (Поворинский район),Октябрьский,Посёлок,51.37917,42.82306,,,,698
1060,Октябрьское (Воронежская область),Октябрьское,Село,51.2346444,41.95375,,,,1329
1061,Пески (Поворинский район),Пески,Село,51.25389,42.45806,,,,6410
1062,Поворино,Поворино,Город,51.2,42.25,в 1870 году,,18[1] км²,16
1063,"Поляна (железнодорожная станция, Поворинский район)",Поляна,Станция,51.16417,42.06806,,,,36
1064,"Поляна (село, Поворинский район)",Поляна,Село,51.17333,42.00333,,,,1
1065,Рождественское (Воронежская область),Рождественское,Село,51.236075,42.1692917,,,,2645
1066,Самодуровка (Воронежская область),Самодуровка,Село,51.19639,42.35861,,,,666
1067,Чибизовка (Поворинский район),Чибизовка,Посёлок,51.24333,42.1175,,,,22
1068,Андреевка (Подгоренский район),Андреевка,Село,50.5044196,39.7997761,1773,,,291
1069,Басовка (Воронежская область),Басовка,Село,50.43542,40.06524,,,,33
1070,Белогорье (Воронежская область),Белогорье,Село,50.493374,40.013855,,,,2171
1071,Белореченский (Воронежская область),Белореченский,Хутор,50.52472,39.65083,,,,47
1072,Берёзово (Подгоренский район),Берёзово,Село,50.61,39.54083,,,,369
1073,Большая Дмитровка (хутор),Большая Дмитровка,Хутор,50.49361,39.64778,,,,98
1074,Большая Хвощеватка,Большая Хвощеватка,Хутор,50.647298,39.724852,,,,316
1075,Большой Скорорыб,Большой Скорорыб,Хутор,50.40283,39.4919,,,,573
1076,Варваровка (Подгоренский район),Варваровка,Хутор,50.47488,39.36178,,,,125
1077,Верхний Карабут,Верхний Карабут,Село,50.55556,39.91667,,,,289
1078,Витебск (Воронежская область),Витебск,Хутор,50.42194,39.93306,,,,215
1079,Высокий Байрак,Высокий Байрак,Хутор,50.58127,39.53739,,,,9
1080,Гальский,Гальский,Хутор,50.36364,39.59489,,,,77
1081,Гарусёнок,Гарусёнок,Хутор,50.59523,39.78698,,,,0
1082,Голубин (Воронежская область),Голубин,Хутор,50.38806,39.67806,,,,7
1083,Гончаровка (Воронежская область),Гончаровка,Село,50.52389,39.46667,,,,776
1084,Григорьевка (Подгоренский район),Григорьевка,Хутор,50.50448,39.34959,,,,36
1085,Гришевка (Воронежская область),Гришевка,Хутор,50.45925,39.49842,,,,53
1086,Даньковский (хутор),Даньковский,Хутор,50.51972,39.66583,,,,156
1087,Должик (Подгоренский район),Должик,Хутор,50.46887,39.80758,,,,64
1088,Духовое (Подгоренский район),Духовое,Хутор,50.30513,39.95641,,,,22
1089,Киров (Воронежская область),Киров,Хутор,50.30798,39.88569,,,,1
1090,Кирпичи (Воронежская область),Кирпичи,Хутор,50.478124,40.025444,,,,35
1091,Колодежное,Колодежное,Село,50.634421,39.844661,,,,643
1092,Коренщина,Коренщина,Хутор,50.3943,39.73995,,,,93
1093,Костомарово (Воронежская область),Костомарово,Село,50.69333,39.76833,,,,263
1094,Костюковка (Воронежская область),Костюковка,Село,50.59631,39.69841,,,,197
1095,Кошарное (Воронежская область),Кошарное,Посёлок,50.45674,39.39285,,,,62
1096,Крамарев (Воронежская область),Крамарев,Хутор,50.65917,39.62111,,,,14
1097,Красный (Подгоренский район),Красный,Хутор,50.42033,39.9504,,,,0
1098,Красный Восход (Воронежская область),Красный Восход,Поселок,50.60028,39.61972,,,,783
1099,Красный Пахарь (Подгоренский район),Красный Пахарь,Хутор,50.34414,39.8747,,,,8
1100,Красюковский,Красюковский,Хутор,50.50889,39.65111,,,,286
1101,Кувшин (хутор),Кувшин,Хутор,50.3505,39.99401,,,,45
1102,Кулешовка (Подгоренский район),Кулешовка,Село,50.39451,39.70905,,,,284
1103,Куренное,Куренное,Хутор,50.34656,39.84123,,,,138
1104,Луговой (Подгоренский район),Луговой,Хутор,50.38609,39.63094,,,,438
1105,Лыково (Воронежская область),Лыково,Село,50.54835,39.78389,,,,337
1106,Малая Судьёвка,Малая Судьёвка,Хутор,50.38395,39.58751,,,,58
1107,Марс (Воронежская область),Марс,Хутор,50.36452,39.64931,,,,0
1108,Медведевка (Воронежская область),Медведевка,Хутор,50.53528,39.64306,,,,6
1109,Морозовка (Подгоренский район),Морозовка,Хутор,50.46722,39.89083,,,,107
1110,Никольский (Подгоренский район),Никольский,Хутор,50.38411,39.61635,,,,84
1111,Новоалександровка (Подгоренский район),Новоалександровка,Хутор,50.51343,39.33929,,,,12
1112,Новоандреевка (Воронежская область),Новоандреевка,Хутор,50.5155,39.74132,,,,1
1113,Окраюшкин,Окраюшкин,Хутор,50.49345,39.58391,,,,142
1114,Опыт (посёлок),Опыт,Посёлок,50.44209,39.53945,,,,733
1115,Перевальное (Воронежская область),Перевальное,Село,50.54191,39.51232,,,,384
1116,Песчаный (Подгоренский район),Песчаный,Хутор,50.41989,39.55181,,,,32
1117,Петропавловка (Подгоренский район),Петропавловка,Хутор,50.38061,39.59764,,,,164
1118,Побединщина (Воронежская область),Побединщина,Хутор,50.38222,39.69611,,,"1,02 км²",189
1119,Погореловка (Воронежская область),Погореловка,Хутор,50.43936,39.80552,,,,62
1120,Подгоренский,Подгоренский,Посёлок городского типа,50.40444,39.65,1958,,,5634
1121,Подгорное (Подгоренский район),Подгорное,Слобода,50.43222,39.63222,,,,3785
1122,Покровка (Подгоренский район),Покровка,Хутор,50.33494,39.60674,,,,54
1123,Пробуждение (Воронежская область),Пробуждение,Посёлок,50.52849,39.59507,,,,487
1124,Репьев (хутор),Репьев,Хутор,50.44199,39.44194,,,,27
1125,Сагуны (посёлок),Сагуны,Посёлок,50.59861,39.61194,,,,246
1126,Сагуны (слобода),Сагуны,Слобода,50.59566,39.71935,,,,1161
1127,Самойленко (хутор),Самойленко,Хутор,50.3727,39.514302,,,,52
1128,Саприно (село),Саприно,Село,50.37503,39.88723,,,,447
1129,Саприно (хутор),Саприно,Хутор,50.47957,39.37603,,,,13
1130,Семейка (Воронежская область),Семейка,Село,50.33012,39.97581,,,,325
1131,Сергеевка (Подгоренский район),Сергеевка,Село,50.42203,39.80681,,,,1096
1132,Серпанки,Серпанки,Хутор,50.42842,39.56073,,,,105
1133,Скорынин (хутор),Скорынин,Хутор,50.58194,39.61694,,,,13
1134,Становой (Воронежская область),Становой,Хутор,50.34009,39.85513,,,,31
1135,Степановка (Подгоренский район),Степановка,Хутор,50.44963,39.56073,,,,196
1136,Суд-Николаевка,Суд-Николаевка,Хутор,50.35253,39.61322,,,,719
1137,Сухая Россошь (хутор),Сухая Россошь,Хутор,50.605,39.60417,,,,211
1138,Терновое (Подгоренский район),Терновое,Посёлок,50.5226,39.32212,,,,220
1139,Украинская Буйловка,Украинская Буйловка,Село,50.392169,40.049251,,,,1
1140,Широкий (Подгоренский район),Широкий,Хутор,50.5658,39.78904,,,,20
1141,Щедрин (Воронежская область),Щедрин,Хутор,50.47028,39.63833,,,,12
1142,Юдино (Воронежская область),Юдино,Село,50.69389,39.71,1740,,,488
1143,Айдарово (Воронежская область),Айдарово,Село,51.90512,39.291804,,,,939
1144,Архангельское (Рамонский район),Архангельское,Посёлок,51.991305,38.940016,,,,17
1145,Берёзово (Рамонский район),Берёзово,Село,51.934463,39.352544,,,,1542
1146,Богданово (Воронежская область),Богданово,Деревня,51.9402771,39.20500183,,,,708
1147,Большая Верейка (село),Большая Верейка,Село,52.016653,38.930075,,,,862
1148,Большая Трещевка,Большая Трещевка,Село,51.940132,38.842881,,,,66
1149,Бор (Рамонский район),Бор,Посёлок,51.9025,39.46917,1698,,,1224
1150,Борки (Воронежская область),Борки,Деревня,51.965061,39.347879,,,,38
1151,Васильевка (Рамонский район),Васильевка,Село,52.040073,38.890656,,,,1
1152,Васильевские Выселки,Васильевские Выселки,Село,52.06722,38.88139,,,,8
1153,Вериловка,Вериловка,Деревня,51.95786,39.110779,,,,0
1154,Ветряк (Воронежская область),Ветряк,Хутор,51.771756,39.193466,,,,13
1155,Высочкино,Высочкино,Село,52.003817,38.755562,,,,15
1156,Галкино (Воронежская область),Галкино,Деревня,51.94556,39.22111,,,,26
1157,Гвоздёвка (Воронежская область),Гвоздёвка,Село,51.829393,39.096541,,,,103
1158,Глушицы (Воронежская область),Глушицы,Село,52.04,39.34389,,,,187
1159,Гнездилово (Воронежская область),Гнездилово,Деревня,51.941694,39.1250389,,,,15
1160,Горожанка (Воронежская область),Горожанка,Село,51.99833,39.12056,,1725,"1,5 км²",428
1161,Гремячье (Рамонский район),Гремячье,Село,51.97972,38.79556,XIX век,,,235
1162,Емань,Емань,Деревня,52.036306,39.198544,,,,23
1163,Каверье (Рамонский район),Каверье,Село,51.96083,38.96444,,,,41
1164,Камышовка (Воронежская область),Камышовка,Хутор,51.866323,38.808926,,,,1
1165,Карачун (Воронежская область),Карачун,Село,52.01222,39.35361,,,,279
1166,Князево (Воронежская область),Князево,Деревня,52.06667,39.18861,,,,515
1167,Комсомольский (Рамонский район),Комсомольский,Посёлок,51.9853487,39.2246461,,,,926
1168,Красное (Рамонский район),Красное,Хутор,51.926378,39.2511,,,,467
1169,Кривоборье,Кривоборье,Деревня,52.04222,39.15111,,,,710
1170,Кулешовка (Рамонский район),Кулешовка,Деревня,51.92917,39.17722,,,,22
1171,Лебяжье (Рамонский район),Лебяжье,Село,51.996812,38.851294,,,,207
1172,Ломово (Воронежская область),Ломово,Село,52.054827,38.824112,,,,383
1173,Лопатки (Воронежская область),Лопатки,Село,51.982023,39.335567,после 1586,1615,,358
1174,Малая Трещевка,Малая Трещевка,Деревня,51.917672,38.831293,,,,21
1175,Медовка (Воронежская область),Медовка,Деревня,51.84306,39.1425,,,,229
1176,Моховатка,Моховатка,Деревня,51.87056,39.17861,,,,167
1177,Нелжа,Нелжа,Село,52.04056,39.385,,1615,,284
1178,Нижняя Верейка,Нижняя Верейка,Село,51.972967,39.053824,начало XVIII века,,,108
1179,Новоживотинное,Новоживоти́нное,Село,51.88889,39.16944,,,,1997
1180,Новоподклетное,Новоподклетное,Деревня,51.773703,39.125085,,,,493
1181,Ольховатка (Рамонский район),Ольховатка,Деревня,51.921859,39.093997,,,,91
1182,Павловка (Рамонский район),Павловка,Село,51.992445,38.809327,,,,1
1183,Панково (Рамонский район),Панково,Хутор,51.872463,39.051384,,,,7
1184,Пекшево (Воронежская область),Пекшево,Село,52.02889,39.35194,,,,9
1185,Петровское (Рамонский район),Петровское,Поселок,52.006575,39.19142389,,,,235
1186,Писаревка (Рамонский район),Писаревка,Деревня,52.06389,39.34972,,,,1
1187,Пчельники (Воронежская область),Пчельники,Село,51.973737,39.481214,,,,56
1188,Пчельное,Пчельное,Посёлок,51.99306,38.95278,,,,11
1189,Рамонь,Рамонь,ПГТ,51.91028,39.34222,,1613,,8545
1190,Репное (Рамонский район),Репное,Деревня,51.885676,39.083921,,,,13
1191,Руда (Воронежская область),Руда,Хутор,51.956234,38.755154,,,,0
1192,Русская Гвоздёвка,Русская Гвоздёвка,Село,51.81111,39.07361,,,,892
1193,Сапожок (Воронежская область),Сапожок,Хутор,51.890348,38.799849,,,,1
1194,Сенное (Воронежская область),Сенное,Село,52.08361,39.33611,XVI век,1615,,96
1195,Сергеевское (Воронежская область),Сергеевское,Посёлок,51.999149,39.225602,,,,59
1196,Скляево,Скляево,Село,51.953806,39.0337611,XVIII в.,,,547
1197,Скляево 4-е,Скляево 4-е,Село,51.928972,38.999472,,,,1
1198,Скляево 5-е,Скляево 5-е,Село,51.924525,39.037314,,,,0
1199,Солнечный (Воронежская область),Солнечный,Нежилой посёлок,51.79889,39.21972,,,,0
1200,Солнце-Дубрава,Солнце-Дубрава,Село,51.968044,39.210121,,,,64
1201,Сомово (Рамонский район),Сомово,Село,51.9386028,38.7988361,1780,,,392
1202,Староживотинное,Староживотинное,Село,51.88666,39.27509,,,,179
1203,Ступино (Рамонский район),Ступино,Село,51.97205,39.383007,,,,605
1204,Трещевка (Воронежская область),Трещевка,Село,51.884354,38.953749,,,,77
1205,Хвощеватка,Хвощеватка,Село,51.87111,39.12778,,1678,,216
1206,Чертовицы,Чертовицы,Село,51.82083,39.27361,,,,1199
1207,Чистая Поляна,Чистая Поляна,Село,51.8840722,38.8221583,,,,499
1208,Ямное (Воронежская область),Ямное,Село,51.79167,39.14167,,,,2309
1209,Александровка 2-я (Репьёвский район),Александровка 2-я,Хутор,51.090881,38.404518,,,,12
1210,Бутырки (Воронежская область),Бутырки,Село,51.0633316,38.61750031,,,,1103
1211,Верхняя Мельница (Воронежская область),Верхняя Мельница,Хутор,51.097778,38.541698,,,,0
1212,Дракино (Репьёвский район),Дракино,Хутор,51.098821,38.573838,,,,131
1213,Дружба (Репьёвский район),Дружба,Хутор,51.105634,38.457695,,,,17
1214,Екатериновка (Репьёвский район),Екатериновка,Хутор,51.103437,38.483878,,,,39
1215,Заречье (Репьёвский район),Заречье,Хутор,51.051595,38.816482,,,,23
1216,Зарослый,Зарослый,Хутор,51.095382,38.517133,,,,31
1217,Истобное (Воронежская область),Истобное,Село,51.26139,38.65944,1-я пол. XVII века,,,1369
1218,Какуринка (Воронежская область),Какуринка,Хутор,51.09889,38.50389,,,,8
1219,Ключи (Репьёвский район),Ключи,Хутор,51.034212,38.628947,,,,1
1220,Колбино (Воронежская область),Колбино,Село,51.04175,38.913718,,,,635
1221,Комсомолец (Воронежская область),Комсомолец,Посёлок,51.058503,38.675162,,,,0
1222,Корнеевка (Воронежская область),Корнеевка,Хутор,51.086822,38.54214,,,,67
1223,Красная Поляна (Воронежская область),Красная Поляна,Хутор,51.106128,38.418367,,,,9
1224,Краснолипье,Краснолипье,Село,51.201913,38.767837,,,,1556
1225,Красный Пахарь (Репьёвский район),Красный Пахарь,Хутор,51.171546,38.972398,,,,10
1226,Крестьянский (Воронежская область),Крестьянский,Хутор,51.079702,38.558761,,,,54
1227,Ленинский Путь (Воронежская область),Ленинский Путь,Посёлок,51.215,38.63528,,,,0
1228,Новая Жизнь (Репьёвский район),Новая Жизнь,Посёлок,51.21556,38.65639,,,,14
1229,Новосолдатка (Воронежская область),Новосолдатка,Село,51.247241,38.800873,,,,928
1230,Обрез (хутор),Обрез,Хутор,51.061809,38.525419,,,,1
1231,Одинцовка (Воронежская область),Одинцовка,Село,51.095059,38.437886,,,,340
1232,Осадчее (Воронежская область),Осадчее,Село,51.1561056,38.5918667,,,,340
1233,Платава (Воронежская область),Платава,Село,51.1790472,38.911425,,,,972
1234,Прилепы (Репьёвский район),Прилепы,Село,51.055945,38.918621,,,,381
1235,Прилужный (Воронежская область),Прилужный,Хутор,51.1699056,38.6517361,,,,195
1236,Прудовый (Воронежская область),Прудовый,Хутор,51.121453,38.793665,,,,9
1237,Репье (Воронежская область),Репье,Хутор,51.152588,38.48175,,,,0
1238,Репьёвка (Воронежская область),Репьёвка,Село,51.07778,38.63333,1757 год,,,5448
1239,Родники (Репьёвский район),Родники,Хутор,51.111732,38.420112,,,,33
1240,Россошь (Репьёвский район),Россошь,Село,51.13499832,38.51361084,,,,858
1241,Сасовка 1-я,Сасовка 1-я,Хутор,51.034935,38.890188,,,,61
1242,Сасовка 2-я,Сасовка 2-я,Хутор,51.025234,38.893463,,,,64
1243,Сердюки (Воронежская область),Сердюки,Хутор,51.044078,38.639153,,,,79
1244,Скорицкое,Скорицкое,Село,51.145859,38.812206,,,,125
1245,Токари (Воронежская область),Токари,Хутор,51.156808,38.488394,,,,0
1246,Ульяновка (Репьёвский район),Ульяновка,Хутор,51.068661,38.812657,,,,14
1247,Усть-Муравлянка,Усть-Муравлянка,Село,51.044836,38.847386,,,,541
1248,Фабрицкое,Фабрицкое,Село,51.100013,38.793409,,,,222
1249,Алейниково (Воронежская область),Алейниково,Село,50.2425,39.79972,в 1780-х гг.,,,232
1250,Александровка (Россошанский район),Александровка,Село,49.98778,39.40167,,,,1187
1251,Анцелович (село),Анцелович,Село,50.14418306,39.58605611,,,,462
1252,Архиповка (Воронежская область),Архиповка,Село,50.21,39.41,,,,1336
1253,Атамановка (Россошанский район),Атамановка,Хутор,49.92971389,39.96517611,,,,53
1254,Бабки (Воронежская область),Бабки,Хутор,50.234,39.723,,,,16
1255,Березняги (Россошанский район),Березняги,Хутор,50.33132306,39.77024111,,,,16
1256,Бещий,Бещий,Хутор,50.29129111,39.51609,,,,47
1257,Богоносово,Богоносово,Хутор,50.11300611,39.56881194,,,,6
1258,Вакуловка (Воронежская область),Вакуловка,Хутор,50.305135,39.78520694,,,,15
1259,Владимировка (Россошанский район),Владимировка,Хутор,50.01288389,39.46494,,,,1
1260,Водяное (Воронежская область),Водяное,Хутор,50.275,39.77,,,,30
1261,Волкодав (хутор),Волкодав,Хутор,50.03772306,39.36128306,,,,1
1262,Ворошиловский,Ворошиловский,Посёлок,50.0459139,39.6087167,,,,241
1263,Высокая Дача,Высокая Дача,Хутор,50.32562389,39.46152611,,,,46
1264,Голубая Криница,Голубая Криница,Хутор,50.07389,39.895,,,,138
1265,Григорьевка (Россошанский район),Григорьевка,Хутор,50.02266,39.83247611,,,,228
1266,Евстратовка (Воронежская область),Евстратовка,Село,50.13139,39.73583,,,,1225
1267,Екатериновка (Россошанский район),Екатериновка,Село,50.11472194,39.35722306,,,,405
1268,Еленовка (Воронежская область),Еленовка,Село,49.948645,39.46494694,,,,350
1269,Ендовино (Воронежская область),Ендовино,Хутор,50.04527306,39.28506111,,,,21
1270,Жилино (Воронежская область),Жилино,Село,49.90306,39.41833,XVIII век,,,868
1271,Ивановка (Россошанский район),Ивановка,Село,50.00722,40.03139,,,,353
1272,Иванченково,Иванченково,Хутор,50.2520333,39.7142694,,,,16
1273,Иловка (Воронежская область),Иловка,Хутор,50.2307,39.8005,,,,18
1274,Каменев (Воронежская область),Каменев,Хутор,50.24222,39.68444,,,,8
1275,Кокаревка (Воронежская область),Кокаревка,Хутор,50.25991,39.58823389,,,,415
1276,Копани (Воронежская область),Копани,Хутор,50.05157194,39.44337111,,,,33
1277,Копанки (Россошанский район),Копанки,Хутор,50.28146,39.51273889,,,,212
1278,Копёнкина,Копёнкина,Посёлок,50.05197111,39.55007306,,,,601
1279,Крамаренков,Крамаренков,Хутор,49.883045,39.25483306,,,,21
1280,Кривоносово (Воронежская область),Кривоносово,Село,49.9125361,39.2532944,,,,988
1281,Криничное (Воронежская область),Криничное,Село,50.01146,39.84544806,,,,606
1282,Кулаковка (Воронежская область),Кулаковка,Село,50.22833,40.05389,,,,163
1283,Лебедь-Сергеевка,Лебедь-Сергеевка,Село,50.05880806,39.76283889,,,,121
1284,Легкодымовка 1-я,Легкодымовка 1-я,Хутор,50.06904306,39.25476111,,,,6
1285,Легкодымовка 2-я,Легкодымовка 2-я,Хутор,50.06340389,39.26354611,,,,7
1286,Лещенково,Лещенково,Хутор,49.95972,40.02194,,,,0
1287,Лизиновка,Лизиновка,Село,50.1227806,39.4594389,,,,1239
1288,Лощина (Воронежская область),Лощина,Хутор,50.13556,39.89444,,,,451
1289,Малая Меженка (хутор),Малая Меженка,Хутор,50.12100611,39.75143889,,,,211
1290,Малый Лес,Малый Лес,Хутор,50.06741,39.24482111,,,,15
1291,Мирошников (хутор),Мирошников,Хутор,50.26417,39.82361,,,,1
1292,Молодёжный (Воронежская область),Молодёжный,Посёлок,50.21532694,39.62610694,,,,289
1293,Морозовка (Россошанский район),Морозовка,Село,50.14083,39.64028,,,,1356
1294,Нагорное (Воронежская область),Нагорное,Хутор,50.15762694,39.59535694,,,,137
1295,Начало (Воронежская область),Начало,Посёлок,50.22862306,39.57483111,,,,1832
1296,Нижний Карабут,Нижний Карабут,Село,50.26833,39.95778,1760 год,,,409
1297,Никоноровка (Воронежская область),Никоноровка,Хутор,50.224,39.797,,,,59
1298,Новая Калитва,Новая Калитва,Село,50.07694,40.01361,,,,2325
1299,Новая Мельница (Россошанский район),Новая Мельница,Хутор,50.09219194,39.94523,,,,40
1300,Новопостояловка,Новопостояловка,Хутор,50.335,39.46222,1835,,,261
1301,Новосёловка (Воронежская область),Новосёловка,Хутор,50.06928806,39.36863889,,,,82
1302,Опытной плодово-ягодной станции,Опытной плодово-ягодной станции,Посёлок,50.1606417,39.5548028,,,,354
1303,Павловка (Россошанский район),Павловка,Хутор,50.24,39.8,,,,1
1304,Первомайское (Россошанский район),Первомайское,Село,49.96609694,39.95359694,,,,462
1305,Перещепное (Россошанский район),Перещепное,Хутор,50.02439111,39.56206611,,,,96
1306,Пинчук (хутор),Пинчук,Хутор,50.14355389,39.71615389,,,,1
1307,Подгорное (Россошанский район),Подгорное,Село,50.1827806,39.5247194,,,,2740
1308,Поддубновка,Поддубновка,Хутор,50.05241694,39.84711,,,,1
1309,Поддубное (Воронежская область),Поддубное,Село,49.89322,39.37316806,,,,523
1310,Подорожный (хутор),Подорожный,Хутор,50.015935,40.05737,,,,1
1311,Поповка (Россошанский район),Поповка,Село,50.30848306,39.61805806,,,,2507
1312,Посёлок совхоза «Россошанский»,Совхоза «Россошанский»,Посёлок,50.198,39.465,,,,571
1313,Пшеничный (Воронежская область),Пшеничный,Хутор,49.92459306,39.41502889,,,,0
1314,Райновское,Райновское,Посёлок,50.05628611,39.66353,,,,212
1315,Россошь,Россошь,Город,50.2,39.58333,XVII век,,"59,06 км²",62625
1316,Ростовец (хутор),Ростовец,Хутор,50.02766611,39.46097806,,,,0
1317,Славянка (Воронежская область),Славянка,Хутор,50.17278,39.78335694,,,,65
1318,Старая Калитва,Старая Калитва,Село,50.1436861,39.9858,,,,1439
1319,Стефанидовка (Воронежская область),Стефанидовка,Хутор,50.29766111,39.48239389,,,,52
1320,Стеценково (Воронежская область),Стеценково,Село,49.96139,40.12667,,,,217
1321,Терновка (Россошанский район),Терновка,Село,50.13194,39.83639,,,,557
1322,Украинский (Воронежская область),Украинский,Хутор,50.226,39.714,,,,536
1323,Херсонский (Воронежская область),Херсонский,Хутор,50.21467611,39.606505,,,,115
1324,Цапково,Цапково,Село,50.02667,40.15944,,,,192
1325,Царевский (хутор),Царевский,Хутор,50.33017306,39.49020889,,,,8
1326,Чагари,Чагари,Хутор,50.05420389,39.46106806,,,,210
1327,Чернышовка (Воронежская область),Чернышовка,Хутор,50.14488806,39.54097306,,,,212
1328,Шекаловка,Шекаловка,Село,50.04606,39.30202111,,,,625
1329,Шрамовка,Шрамовка,Село,49.92242694,39.57130806,,,,416
1330,Александровка (Семилукский район),Александровка,Деревня,51.95444,38.38528,,,,0
1331,Бахчеево,Бахчеево,Посёлок сельского типа,51.5937611,38.8739611,,,,444
1332,Берёзовка (Семилукский район),Берёзовка,Село,51.97417,38.33944,XVIII,,,289
1333,Бехтеевка (Воронежская область),Бехтеевка,Хутор,51.75668806,38.77924194,,,,33
1334,Богоявленка (Воронежская область),Богоявленка,Село,51.78074889,39.00610694,,,,37
