id,link,name,status,lat,lng,year,first,area,population
1,Александровка (Аннинский район),Александровка,Посёлок,51.33389,40.85194,,,,120
2,Анна (Воронежская область),Анна,Посёлок городского типа,51.48333,40.41667,в 1698 году,1698,,16064
3,Артюшкино (Воронежская область),Артюшкино,Село,51.3462333,40.9594778,XVIII век,,,500
4,Архангельское (Аннинский район),Архангельское,Село,51.45028,40.93222,XVIII век,,,2165
5,Бабинка (Воронежская область),Бабинка,Посёлок,51.3354278,41.03445,,,,18
6,Берёзовка (Аннинский район),Берёзовка,Село,51.315,40.20194,,,,936
7,Бобяково,Бобяково,Село,51.5152333,40.8067111,,,,85
8,Большая Алексеевка (Воронежская область),Большая Алексеевка,Село,51.543741,40.777863,,,,234
9,Большие Ясырки (Аннинский район),Большие Ясырки,Село,51.6207528,40.4791417,1686,,,646
10,Бродовое (Воронежская область),Бродовое,Село,51.48833,40.49528,1780,,,1228
11,Васильевка (Аннинский район),Васильевка,Село,51.48611,40.19889,,,,586
12,Верхняя Тойда,Верхняя Тойда,Село,51.421986,40.304829,,,,836
13,Гусевка (Воронежская область),Гусевка,Посёлок,51.4375111,41.1027889,,,,93
14,Гусевка 2-я,Гусевка 2-я,Посёлок,51.34861,40.84222,,,,179
15,Денисовка (Воронежская область),Денисовка,Посёлок,51.6147,40.4286278,,,,1
16,Дерябкино (Воронежская область),Дерябкино,Село,51.5273639,40.9371222,,,,489
17,Дмитровский (Воронежская область),Дмитровский,Посёлок,51.4376194,40.3964222,,,,21
18,Дубровка (Аннинский район),Дубровка,Посёлок,51.3927028,40.7979333,,,,116
19,Желанное (Воронежская область),Желанное,Село,51.53667,40.4275,,,,301
20,Загорщино,Загорщино,Село,51.2703556,40.344222,,,,72
21,Зеленёвка,Зеленёвка,Посёлок,51.44583,40.12694,,,,12
22,Козловский (Аннинский район),Козловский,Посёлок,51.3173583,40.2577722,,,,20
23,Красный (Аннинский район),Красный,Посёлок,51.4878694,41.1154833,,,,32
24,Красный Лог (Аннинский район),Красный Лог,Посёлок,51.5275861,41.0747028,,,,242
25,Кругловский,Кругловский,Посёлок,51.424056,41.0601917,,,,145
26,Круглоподпольное,Круглоподпольное,Поселок,51.5327583,40.3337333,,,,440
27,Кушлев,Кушлев,Посёлок,51.3907694,40.504333,,,3 км²,45
28,Левашовка (Воронежская область),Левашовка,Село,51.4813389,40.33545,,,,295
29,Мосоловка (Воронежская область),Мосоловка,Село,51.56945,40.4299389,,1698,,375
30,Моховое (Аннинский район),Моховое,Село,51.42083,40.60083,,1810,,357
31,Нащёкино (Воронежская область),Нащёкино,Село,51.39917,40.13806,,1810,,529
32,"Николаевка (посёлок, Аннинский район)",Николаевка,Посёлок,51.29917,40.84972,,,,37
33,"Николаевка (село, Аннинский район)",Николаевка,Село,51.51667,40.26667,,,,1188
34,Никольское (Аннинский район),Никольское,Село,51.4687111,40.9595611,,,,1159
35,Новая Жизнь (Аннинский район),Новая Жизнь,Посёлок,51.4077639,40.7456472,,,,555
36,Новомакаровский,Новомакаровский,Посёлок,51.4265,41.1159667,,,,13
37,Новонадеждинский,Новонадеждинский,Поселок,51.4444528,40.2194056,,,,707
38,Новоникольский (Аннинский район),Новоникольский,Посёлок,51.2846083,40.8745861,,,,6
39,Новый Курлак,Новый Курлак,Село,51.44056,40.5525,1740,,,585
40,Островки (Воронежская область),Островки,Село,51.4238417,40.9224833,,,,727
41,Панкратовский (Воронежская область),Панкратовский,Посёлок,51.412275,40.3830722,,,,20
42,Первомайское (Аннинский район),Первомайское,Посёлок,51.5720361,40.380425,,,,59
43,Петровка (Аннинский район),Петровка,Посёлок,51.2922722,40.8491056,,,,81
44,Посёлок Комсомольского отделения совхоза «Красное Знамя»,Комсомольского отделения совхоза «Красное Знамя»,Посёлок,51.57444,40.60389,,,,91
45,Посёлок Октябрьского отделения совхоза «Пугачёвский»,Октябрьского отделения совхоза «Пугачёвский»,Посёлок,51.57583,40.71639,,,,74
46,Посёлок Первомайского отделения совхоза «Пугачёвский»,Первомайского отделения совхоза «Пугачёвский»,Посёлок,51.54194,40.68333,,,,51
47,Посёлок отделения «2-я Пятилетка» совхоза «Красное Знамя»,отделения «2-я Пятилетка»совхоза «Красное Знамя»,Посёлок,51.60139,40.7075,,,,53
48,Прогресс (Воронежская область),Прогресс,Посёлок,51.59583,40.49167,,,,125
49,Рамонье,Рамонье,Село,51.4022667,41.1069833,,,,864
50,Романовка (Аннинский район),Романовка,Посёлок,51.36056,40.12694,,,,115
51,Рубашевка,Рубашевка,Посёлок,51.61625,40.6466333,,,,451
52,Сабуровка (Воронежская область),Сабуровка,Село,51.5840139,40.3697806,,,,129
53,Садовое (Воронежская область),Садовое,Село,51.53861,40.48583,конец XVII века,,,4064
54,Светлый Путь (Воронежская область),Светлый Путь,Посёлок,51.4043728,40.4845547,,,,0
55,Сергеевка (Аннинский район),Сергеевка,Посёлок,51.301325,40.8702361,,,,55
56,Софьинка (Аннинский район),Софьинка,Село,51.4959139,40.2842944,,,,191
57,Старая Тойда,Старая Тойда,Село,51.374111,40.4204528,1701,1697,,679
58,Старая Чигла,Старая Чигла,Село,51.27972,40.37806,1698,1698,,792
59,Старый Курлак,Старый Курлак,Село,51.41667,40.53111,1701,,,361
60,Студёное (Воронежская область),Студёное,Село,51.402,40.199056,,,,323
61,Суровский (Воронежская область),Суровский,Посёлок,51.3876833,41.0334472,,,,109
62,Трежесковка,Трежесковка,Посёлок,51.4499583,41.1128639,,,,0
63,Фоминовка,Фоминовка,Хутор,51.497757,40.367981,,,,0
64,Хлебородное (Воронежская область),Хлебородное,Село,51.46472,40.68889,XIX век,,,766
65,Центральная Усадьба совхоза «Пугачёвский»,Центральная Усадьба совхоза «Пугачёвский»,Посёлок,51.56778,40.66722,,,,743
66,2-е Никольское,2-е Никольское,Село,51.124934,39.816298,,,,675
67,Анновка (Воронежская область),Анновка,Село,50.98639,40.31167,,,,543
68,Бобров (город),Бобров,Город,51.09444,40.03222,в 1698 году,,22[1] км²,20007
69,Бобровский 1-й (Воронежская область),Бобровский 1-й,Посёлок,51.35194,39.89222,,,,11
70,Брагинского лесничества,Брагинского лесничества,Посёлок,51.18583,40.34889,,,,18
71,Верхний Икорец,Верхний Икорец,Село,51.18361,39.79472,,,,1155
72,Висленского лесничества,Висленского лесничества,Посёлок,51.19972,40.19389,,,,18
73,Заводской (Воронежская область),Заводской,Посёлок,50.9793778,40.0408361,,,,7
74,Заречный (Воронежская область),Заречный,Посёлок,51.18111,39.82639,,,,196
75,Заря (Бобровский район),Заря,Хутор,51.1636472,40.4048278,,,,44
76,Зелёный Луг (Воронежская область),Зелёный Луг,Посёлок,51.06889,40.13417,,,,0
77,Карандеевка (Воронежская область),Карандеевка,Посёлок,51.0763722,39.8413639,,,,50
78,Кистенёвка,Кистенёвка,Посёлок,50.949972,40.1878917,,,,9
79,Копаня,Копаня,Посёлок,51.0482472,39.9460778,,,,75
80,Коршево (Воронежская область),Коршево,Село,51.19,40.12083,,,,1997
81,Липовка (Воронежская область),Липовка,Село,50.8602167,40.0292333,,,,661
82,Лугань (Воронежская область),Лугань,Посёлок,50.9240583,40.0137833,,,,20
83,Лушниковка (Воронежская область),Лушниковка,Посёлок,51.09722,40.09639,,,,543
84,Люблинский (Воронежская область),Люблинский,Посёлок,51.3066722,39.8542389,,,,0
85,Мечётка (Воронежская область),Мечётка,Село,50.91417,40.11278,,,,937
86,Митрофановка (Бобровский район),Митрофановка,Посёлок,51.00167,40.36528,,,,143
87,Морозовка (Бобровский район),Морозовка,Посёлок,50.8900778,40.2538111,,,,1
88,Неждановка (Воронежская область),Неждановка,Посёлок,51.0253028,39.97835,,,,74
89,Нескучный,Нескучный,Посёлок,51.1378639,39.7852333,,,,159
90,Николо-Варваринка,Николо-Варваринка,Село,51.00667,39.97861,,,,956
91,Новый Буравль,Новый Буравль,Село,50.9677528,40.2071167,,,,87
92,Павловка (Бобровский район),Павловка,Село,50.9772111,40.0916472,,,,1
93,Песковатка (Бобровский район),Песковатка,Село,51.25639,39.94972,,,,448
94,Петрово-Борковский,Петрово-Борковский,Посёлок,51.019556,39.932,,,,124
95,Погромок,Погромок,Посёлок,51.25,39.83,,,,73
96,Прохладный (Воронежская область),Прохладный,Хутор,51.35972,39.87611,,,,0
97,Пчелиновка (Воронежская область),Пчелиновка,Село,50.94167,39.99639,,,,634
98,Пятилетка 2-я,Пятилетка 2-я,Посёлок,51.32667,39.94917,,,,0
99,Раздольный (Воронежская область),Раздольный,Хутор,51.13889,39.81639,,,,71
100,Семёно-Александровка,Семёно-Александровка,Село,51.04111,40.21444,,,,1772
101,Серов (Воронежская область),Серов,Хутор,50.77694,40.00528,,,,1
102,Слобода (Воронежская область),Слобода,Село,51.14,40.29,1845,,,3686
103,Советский (Бобровский район),Советский,Посёлок,50.8735722,40.2201639,,,,0
104,Соколовский (Бобровский район),Соколовский,Хутор,51.04565,39.8353583,,,,110
105,Сухая Берёзовка (село),Сухая Берёзовка,Село,51.1779111,39.9992944,,,,1176
106,Тройня (село),Тройня,Село,51.03944,40.43389,,,,359
107,Филатовка (Воронежская область),Филатовка,Посёлок,50.929583,40.242825,,,,14
108,Хренище,Хренище,Хутор,51.104083,39.7857944,,,,99
109,Хреновое (Бобровский район),Хреновое,Село,51.12,40.28667,,XVIII век,,4983
110,Центральная Усадьба Бобровского Лесничества,Центральная Усадьба Бобровского Лесничества,Посёлок,51.131019,40.273774,,,,1
111,Чесменка (Воронежская область),Чесменка,Село,51.29028,40.17028,,,,1112
112,Шестаково (Воронежская область),Шестаково,Село,50.79167,40.05,1701,,,1917
113,Шестикурганный,Шестикурганный,Хутор,51.0774333,40.3917806,,,,158
114,Шишовка (Воронежская область),Шишовка,Село,51.24444,40.19389,,,,1153
115,Шкарин (хутор),Шкарин,Хутор,51.123694,40.3801083,,,,153
116,Юдановка (Воронежская область),Юдановка,Село,51.2736278,39.8346694,,,,611
117,Ясенки (Воронежская область),Ясенки,Посёлок,51.0530083,39.9735444,,,,1891
118,Абросимово (Воронежская область),Абросимово,Село,49.887444,40.8977611,,1645,,94
119,Батовка,Батовка,Хутор,49.5972417,40.5421444,,,,139
120,Белая Горка 1-я,Белая Горка 1-я,Село,49.7930361,40.9417056,,,,169
121,Белая Горка 2-я,Белая Горка 2-я,Село,49.7898778,40.970889,,,,12
122,Белый Колодезь (Воронежская область),Белый Колодезь,Хутор,49.986225,40.2420333,,,,22
123,Богучар,Богучар,Город,49.93333,40.55,1704,,13[1] км²,11048
124,Варваровка (Богучарский район),Варваровка,Хутор,49.7415194,40.4488167,,,,519
125,Вервековка,Вервековка,Село,49.9229194,40.4713722,,,,499
126,Вишнёвый (Воронежская область),Вишнёвый,Посёлок,49.97917,40.40111,1978,,,330
127,Галиевка (Воронежская область),Галиёвка,Хутор,49.98083,40.635,,,,603
128,Грушовое (Богучарский район),Грушовое,Село,50.00972,40.60361,,,,139
129,Данцевка,Данцевка,Село,49.9087306,40.26675,,,,554
130,Дубовиково,Дубовиково,Село,50.0146417,40.3045167,,,,59
131,Дубрава (Воронежская область),Дубрава,Посёлок,49.85139,40.77806,1841,,,66 человек (2005
132,Дьяченково,Дьяченково,Село,49.9112278,40.5998222,1730,,,2288
133,Дядин (Воронежская область),Дядин,Хутор,49.8330361,40.530472,,,,333
134,Журавка (Богучарский район),Журавка,Село,50.0481361,40.5973389,,,,552
135,Залиман (Воронежская область),Залиман,Село,49.94667,40.57833,1720,,,2569
136,Каразеево,Каразеево,Село,49.700194,40.7808861,,,,78
137,Кравцово (Воронежская область),Кравцово,Хутор,49.6458667,40.5833417,,,,81
138,Красногоровка (Воронежская область),Красногоровка,Село,49.9233222,40.7676417,,1773,,482
139,Краснодар (Воронежская область),Краснодар,Хутор,49.895425,40.2427167,,,,128
140,Криница (Богучарский район),Криница,Село,49.7113639,40.6108083,,,,509
141,Купянка (Воронежская область),Купянка,Село,49.9023583,40.545575,1846,,,1062
142,Лебединка (Воронежская область),Лебединка,Село,49.6516639,40.4329667,,1792,,760
143,Липчанка,Липчанка,Село,49.78583,40.46444,,,,809
144,Лофицкое,Лофицкое,Село,49.9125,40.45778,,,,748
145,Луговое (Воронежская область),Луговое,Село,49.9089972,40.3319833,1740,,,841
146,Марьевка (Богучарский район),Марьевка,Хутор,49.7365667,40.3641833,,,,26
147,Монастырщина (Воронежская область),Монастырщина,Село,49.8318694,40.9211056,1595,,,1093
148,Новоникольск (Воронежская область),Новоникольск,Село,49.6262278,40.3823417,,,,103
149,Перещепное (Богучарский район),Перещепное,Хутор,49.9948722,40.5119306,,,,182
150,Плесновка,Плесновка,Село,49.6461333,40.4954528,,,,296
151,Подколодновка,Подколодновка,Село,50.0015111,40.662306,1720,,,1582
152,Полтавка (Воронежская область),Полтавка,Село,49.8747667,40.5565639,,,,523
153,Поповка (Богучарский район),Поповка,Село,49.9118361,40.496778,,,,399
154,Радченское,Радченское,Село,49.8023806,40.5023167,,,,1175
155,Расковка (Воронежская область),Расковка,Село,49.9089972,40.367,,1779,,318
156,Свобода (Богучарский район),Свобода,Село,50.028575,40.4514583,1740,,,175
157,Старотолучеево,Старотолучеево,Село,49.969075,40.759611,1716,,,375
158,Сухой Донец (село),Сухой Донец,Село,49.8072139,40.914583,1767,,,788
159,Твердохлебовка,Твердохлебовка,Село,49.936889,40.349,1720,,,726
160,Терешково (Воронежская область),Терешково,Село,49.9202722,40.6595611,,1772,,624
161,Тихий Дон (Воронежская область),Тихий Дон,Хутор,50.0659111,40.5182472,,1779,,48
162,Травкино (Воронежская область),Травкино,Село,49.81083,40.38167,1929,,,428
163,Филоново (Воронежская область),Филоново,Село,50.0405778,40.4864667,,1740,,596
164,Шуриновка,Шуриновка,Село,49.7350222,40.3921472,,,,09 человек (2005
165,Южный (Воронежская область),Южный,Посёлок,49.7533861,40.777111,,,,413
166,Алексеевский (Воронежская область),Алексеевский,Посёлок,50.861208,40.338395,,,,
167,Благовещенский (Бутурлиновский район),Благовещенский,Посёлок,50.881317,40.347204,,,,
168,Бутурлиновка,Бутурлиновка,Город,50.825,40.58889,1740,,"37,72 км²",24007
169,Васильевка (Бутурлиновский район),Васильевка,Село,50.920373,40.979639,,,,868
170,Великоархангельское,Великоархангельское,Село,50.85,40.76,,,,134
171,Верхние Озерки,Верхние Озерки,Посёлок,50.929849,40.377621,,,,
172,Гвазда,Гвазда,Село,50.75278,40.4825,,,,2183
173,Данило (Бутурлиновский район),Данило,Хутор,50.64185,40.50615,,,,
174,Дмитриевка (Бутурлиновский район),Дмитриевка,Село,50.780544,40.524401,,,,92
175,Елизаветино (Воронежская область),Елизаветино,Село,50.7658972,40.8086722,,,,88
176,Зелёный (Воронежская область),Зелёный,Посёлок,50.797269,40.659056,,,,5
177,Зелёный Гай (Воронежская область),Зелёный Гай,Посёлок,50.81111,40.52944,,,,40
178,Земледелец (Воронежская область),Земледелец,Посёлок,50.87056,40.52778,,,"0,3853 км²",4
179,Карайчевка,Карайчевка,Село,50.885951,40.283833,,,,60
180,Клёповка,Клеповка,Село,50.729806,40.463634,,,,2110
181,Козловка (Бутурлиновский район),Козловка,Село,50.86389,40.45972,,,,2785
182,Колодеевка (Бутурлиновский район),Колодеевка,Село,50.854261,41.003649,,,,30
183,Комсомольский (Бутурлиновский район),Комсомольский,Посёлок,50.84778,40.29611,,,,6
184,Круглый (Воронежская область),Круглый,Посёлок,50.905,40.54722,,,"0,1349 км²",
185,Кучеряевка (Воронежская область),Кучеряевка,Село,50.8783917,40.913525,,,,693
186,Макогоново,Макогоново,Село,50.9293417,40.8169139,,,,93
187,Малый Кисляй,Малый Кисляй,Посёлок,50.86861,40.13,,,,25
188,Марьевка (Бутурлиновский район),Марьевка,Село,50.794263,40.503102,,,,8
189,Масычево (Воронежская область),Масычево,Село,50.7232,40.7400083,,,,68
190,Нижний Кисляй,Нижний Кисляй,Посёлок городского типа,50.85528,40.17972,XVII век,,"9,86 км²",3241
191,Отрадное (Бутурлиновский район),Отрадное,Село,50.88806,40.56861,,,"0,8933 км²",3
192,Патокино (Воронежская область),Патокино,Село,50.8009806,40.7901333,,,,80
193,Пирамиды (село),Пирамиды,Село,50.859809,40.301822,,,,4
194,Пузево (Воронежская область),Пузево,Село,50.66,40.39333,,,,977
195,Рахмановка (Воронежская область),Рахмановка,Хутор,50.82611,40.325,,,,
196,Сериково,Сериково,Село,50.9532306,40.8699417,,,,35
197,Толучеево,Толучеево,Село,50.844916,41.032489,,,,6
198,Тюниково,внутреннее деление,Село,50.86887,40.721832,,,,28
199,Ударник (Воронежская область),Ударник,Село,50.92167,40.72361,,,,90
200,Филиппенково,Филиппенково,Село,50.74222,40.74778,,,,15
201,Чернавка (Бутурлиновский район),Чернавка,Деревня,50.6829083,40.3863861,,,,47
202,Чулок (Воронежская область),Чулок,Село,50.9362861,40.6534917,,,,10
203,Верхний Мамон,Верхний Мамон,Село,50.16778,40.39667,в 1702 году,1653,,8561
204,Гороховка (Верхнемамонский район),Гороховка,Село,50.1070861,40.194833,1702,,"17,5 км²",1142
205,Дерезовка (Воронежская область),Дерезовка,Село,50.0768389,40.3026722,,,,25
206,Донской (Воронежская область),Донской,Хутор,50.0878861,40.1856,,,,2
207,Красноярский (Воронежская область),Красноярский,Хутор,50.23417,40.40611,,,,
208,Лукьянчиков (хутор),Лукьянчиков,Хутор,50.099914,40.572616,,,, человек (2010
209,Мамоновка (Воронежская область),Мамоновка,Село,50.39444,40.5,1787,1795,,533
210,Нижний Мамон,Нижний Мамон,Село,50.17,40.5,,,,3564
211,Ольховатка (Верхнемамонский район),Ольховатка,Село,50.17195,40.0992111,1712,,,792
212,Оробинский,Оробинский,Хутор,50.03639,40.2288583,,,,74
213,Осетровка (Воронежская область),Осетровка,Село,50.1435167,40.4698722,,,,686
214,Приречное (Воронежская область),Приречное,Село,50.2181972,40.4696833,,,,636
215,Русская Журавка,Русская Журавка,Село,50.3525528,40.54985,,,,1423
216,Абрамовка (Верхнехавский район),Абрамовка,Деревня,51.91694,40.06889,,,,23
217,Александровка (Верхнехавский район),Александровка,Село,51.83806,40.32889,,,,285
218,Андреевка 1-я,Андреевка 1-я,Деревня,51.75944,39.86528,,,,72
219,Беловка (Воронежская область),Беловка,Село,51.90833,39.79,,,,154
220,Большая Михайловка (Воронежская область),Большая Михайловка,Посёлок,51.90139,40.0225,,,,23
221,Большая Приваловка,Большая Приваловка,Село,51.89833,39.75194,,,,582
222,Васильевка 1-я (Воронежская область),Васильевка 1-я,Село,51.781445,40.101585,,,,337
223,Васильевка 2-я,Васильевка 2-я,Посёлок,51.84361,40.28111,,,,11
224,Верхняя Байгора,Верхняя Байгора,Село,51.9199889,39.868475,,,,396
225,Верхняя Луговатка,Верхняя Луговатка,Село,51.96444,40.09889,,,,576
226,Верхняя Маза (Воронежская область),Верхняя Маза,Посёлок,51.81472,40.15194,,,,448
227,Верхняя Плавица,Верхняя Плавица,Село,51.94889,40.20917,,XVIII,,432
228,Верхняя Хава,Верхняя Хава,Село,51.83889,39.94167,,,,8154
229,Виноградовка (Верхнехавский район),Виноградовка,Посёлок,51.855,39.88722,,,,16
230,Вишнёвка (Воронежская область),Вишнёвка,Посёлок,51.83389,39.84306,,,,808
231,Владимировка (Верхнехавский район),Владимировка,Посёлок,51.82139,39.69833,,,,1
232,Воля (Верхнехавский район),Воля,Посёлок,51.87278,40.28611,,,,58
233,Воронеж,Воронеж,Город,51.67167,39.21056,1586,,"596,51[1] км²",1050602
234,Грушино (Воронежская область),Грушино,Село,51.83694,39.80861,,,,124
235,Дмитро-Покровское,Дмитро-Покровское,Село,51.7822333,39.8705444,,,,56
236,Енино (Воронежская область),Енино,Посёлок,51.84278,39.63972,,,,7
237,Желдаевка,Желдаевка,Посёлок,51.8579556,39.6487472,,,,79
238,Забугорье,Забугорье,Село,51.8194833,39.6350139,,,,48
239,Ильиновка (Воронежская область),Ильиновка,Деревня,51.7282167,39.82865,,,,35
240,Краснолесный,Краснолесный,  ,51.88028,39.59444,,,,5405
241,Лукичёвка,Лукичёвка,Посёлок,51.8390528,39.6381028,,,,1
242,Малая Приваловка,Малая Приваловка,Село,51.861225,39.673205,,,,435
243,Малиновка (Верхнехавский район),Малиновка,Посёлок,51.87306,39.86028,,,,153
244,Малый Самовец (Воронежская область),Малый Самовец,Посёлок,51.92944,40.32667,,,,215
245,Митрофановка (Верхнехавский район),Митрофановка,Посёлок,51.84722,40.31972,,,,53
246,Мокруша (Воронежская область),Мокруша,Деревня,51.81,40.02611,,,,9
247,НИИОХ,НИИОХ,Посёлок,51.84028,39.82944,,,,256
248,Нескучное (Воронежская область),Нескучное,Посёлок,51.82583,39.73889,,,,1
249,Нижняя Байгора,Нижняя Байгора,Село,51.938325,39.9251222,,,,575
250,Николаевка (Верхнехавский район),Николаевка,Посёлок,51.8125,40.18306,,,,11
251,Никольское (Верхнехавский район),Никольское,Посёлок,51.86444,39.73472,,,,79
252,Никольское 3-е,Никольское 3-е,Деревня,51.78889,40.23333,,,,18
253,Никоново (Воронежская область),Никоново,Село,51.795861833,39.587409833,1912,,,548
254,Охочевка (Воронежская область),Охочевка,Село,51.94806,40.04333,,,,1
255,Плясоватка,Плясоватка,Село,51.8969278,40.1122333,,,,259
256,Подлесный (Верхнехавский район),Подлесный,Посёлок,51.80556,39.56639,,,,2460
257,Покровка (Верхнехавский район),Покровка,Деревня,51.9147639,40.0985,,,,95
258,Правая Хава (село),Правая Хава,Село,51.7221417,39.775778,,,,563
259,Приобретёнка,Приобретёнка,Посёлок,51.86778,40.33556,,,,0
260,Семёновка (Верхнехавский район),Семеновка,Село,51.90556,40.04694,,,,352
261,Семёновка 1-я,Семёновка 1-я,Деревня,51.77972,39.82639,,,,1
262,Семёновка 2-я,Семёновка 2-я,Деревня,51.78306,39.79722,,,,7
263,Синицино (Воронежская область),Синицино,Посёлок,51.82444,40.20111,,,,1
264,Спасское (Верхнехавский район),Спасское,Село,51.82778,39.77389,,,,16
265,Степановка (Верхнехавский район),Степановка,Посёлок,51.8225,40.3025,,,,11
266,Сухие Гаи,Сухие Гаи,Село,51.7745639,39.8829028,,,,381
267,Таловая (Верхнехавский район),Таловая,Деревня,51.8055417,39.9237583,,,,104
268,Троицкий (Верхнехавский район),Троицкий,Посёлок,51.85083,39.7875,,,,15
269,Углянец,Углянец,Село,51.81667,39.6,1617,,,3658
270,Фоминичи (Воронежская область),Фоминичи,Посёлок,51.79083,40.15694,,,,38
271,Хлопотное,Хлопотное,Посёлок,51.7604,39.7905389,,,,14
272,Черняхи,Черняхи,Посёлок,51.85667,39.97444,,,,0
273,Шукавка (Верхнехавский район),Шукавка,Посёлок,51.88194,40.185,,,,593
274,Эртель (хутор),Эртель,Хутор,51.8521083,39.70265,,,,18
275,Банное (Воронежская область),Банное,Село,50.815,41.18528,1735,,,76
276,Берёзовка (Воробьёвский район),Березовка,Село,50.7091583,40.979611,1730,,,410
277,Верхнетолучеево,Верхнетолучеево,Село,50.7544806,41.0345417,,,,70
278,Верхний Бык,Верхний Бык,Село,50.7275,41.23917,1790,,,48
279,Воробьёвка (Воронежская область),Воробьёвка,Село,50.64417,40.94528,1730,,,800 челове
280,Высокое (Воробьёвский район),Высокое,Посёлок,50.79111,41.15944,,,,6
281,Горюшкин (хутор),Горюшкин,Хутор,50.5669056,41.0767639,,,,4
282,Елизаветовка (Воробьёвский район),Елизаветовка,Село,50.7533917,40.9188417,,,,79
283,Затон (Воронежская область),Затон,Село,50.6559361,40.7334472,1960-х,середина 18 века,,32
284,Землянка (Воронежская область),Землянка,Хутор,50.82444,41.12806,1840-1850 годы,,,8
285,Каменка (Воробьёвский район),Каменка,Село,50.6199111,40.6555139,,,,7
286,Квашино (Воронежская область),Квашино,Село,50.64972,40.82306,конец 18 века,,,29
287,Краснополье (Воронежская область),Краснополье,Село,50.62167,41.28722,около 1790,,,40
288,Лещаное,Лещаное,Село,50.59611,40.88722,,,,1062
289,Луговской (Воронежская область),Луговской,Хутор,50.6590778,41.1488694,,,,
290,Мирный (Воронежская область),Мирный,Посёлок,50.69515,41.097425,неизвестно,,,37
291,Мужичье,Мужичье,Село,50.746639,41.0681889,1780,,,9
292,Нагольный (Воронежская область),Нагольный,Хутор,50.6514333,41.3805444,1907,1907,,34
293,Нижний Бык,Нижний Бык,Село,50.69944,41.17417,1790,,,71
294,Никольское 1-е (Воробьёвский район),Никольское 1-е,Село,50.5760944,41.1460944,1740,,,197
295,Никольское 2-е (Воробьёвский район),Никольское 2-е,Село,50.61556,41.14139,2001,,,517
296,Новотолучеево,Новотолучеево,Село,50.55417,40.97389,18 век,,,23
297,Первомайский (Воробьёвский район),Первомайский,Посёлок,50.6448389,40.8603972,1896,,,56
298,Посёлок 1-го отделения совхоза «Краснопольский»,1-го отделения совхоза «Краснопольский»,Посёлок,50.6220167,41.3801861,,1907,,68
299,Посёлок 2-го отделения совхоза «Краснопольский»,2-го отделения совхоза «Краснопольский»,Посёлок,50.64833,41.24444,,,,
300,Посёлок Центральной усадьбы совхоза Воробьёвский,Центральной усадьбы совхоза Воробьёвский,Посёлок,50.68806,40.82056,,,,180
301,Рудня (Воронежская область),Рудня,Село,50.5465,40.9609917,,,,
302,Солонцы (Воробьёвский район),Солонцы,Село,50.6190389,40.7022056,1844,,,8
303,Алексеевка (Грибановский район),Алексеевка,Село,51.60333,42.00389,,,,92
304,Бирючий (Воронежская область),Бирючий,Посёлок,51.45472,41.61611,,,,3
305,Большие Алабухи,Большие Алабухи,Село,51.57361,42.24972,,,,26
306,Васильевка (Грибановский район),Васильевка,Село,51.28917,41.735,,,,80
307,Верхний Затон,Верхний Затон,Посёлок,51.54556,42.23194,,,,8
308,Верхний Карачан,Верхний Карачан,Село,51.405,41.77111,,,,1977
309,Власовка (Воронежская область),Власовка,Село,51.56361,42.30444,,,,47
310,Грибановский (посёлок городского типа),Грибановский,Посёлок городского типа,51.45,41.96667,1703,,,14652
311,Дмитриевка (Грибановский район),Дмитриевка,Село,51.47306,41.6,,,,6
312,Дмитриевка 2-я,Дмитриевка 2-я,Посёлок,51.41333,41.86111,,,,0
313,Емельяновка (Воронежская область),Емельяновка,Посёлок,51.49306,41.78306,,,,5
314,Калиново (Грибановский район),Калиново,Село,51.43167,41.59556,,,,39
315,Кирсановка (Воронежская область),Кирсановка,Село,51.45333,41.78833,,,,12
316,Красная Заря (Воронежская область),Красная Заря,Посёлок,51.55694,42.09056,,,,8
317,Краснореченка,Краснореченка,Село,51.37694,41.27167,,,,287
318,Красовка (Воронежская область),Красовка,Деревня,51.43806,41.49556,,,,48
319,Кутки (Воронежская область),Кутки,Село,51.33806,41.54528,,,,70
320,Лавровка (Воронежская область),Лавровка,Село,51.39056,41.52556,,,,42
321,Листопадовка (Воронежская область),Листопадовка,Село,51.41583,41.43833,,,,286
322,Малая Грибановка,Малая Грибановка,Село,51.50972,42.07583,1703,,,28
323,Малые Алабухи 1-е,Малые Алабухи 1-е,Село,51.54806,42.16111,,,,74
324,Малые Алабухи 2-е,Малые Алабухи 2-е,Село,51.56,42.19,,,,57
325,Маяк (Воронежская область),Маяк,Посёлок,51.34833,41.82444,,,,
326,Межевихин,Межевихин,Посёлок,51.57778,41.98861,,,,1
327,Нижний Карачан,Нижний Карачан,Село,51.34861,41.77333,,,,908
328,Новая Жизнь (Грибановский район),Новая Жизнь,Посёлок,51.42306,41.21444,,,,4
329,Новогольелань,Новогольелань,Село,51.51028,41.25778,,,,39
330,Новогольское,Новогольское,Село,51.4875,41.46222,,,,9
331,Новомакарово,Новомакарово,Село,51.46222,41.23889,1886,,,",6 тыс. челове"
332,Новоспасовка (Воронежская область),Новоспасовка,Село,51.56917,41.28111,,,,
333,Поляна (Грибановский район),Поляна,Село,51.41306,41.50889,,,,
334,Посевкино,Посевкино,Село,51.66583,42.23861,,,,
335,Посёлок Первомайского отделения совхоза «Грибановский»,Первомайского отделения совхоза «Грибановский»,Посёлок,51.49722,42.01167,,,,32
336,Посёлок совхоза «Павловка»,Совхоза «Павловка»,Посёлок,51.68417,42.16,,,,41
337,Савельевский (Воронежская область),Савельевский,Посёлок,51.44028,41.5925,,,,
338,Симкин (Воронежская область),Симкин,Посёлок,51.57167,41.95,,,,
339,Средний Карачан,Средний Карачан,Село,51.38222,41.76917,,,,91
340,Старогольское (Воронежская область),Старогольское,Село,51.46833,41.4825,,,,
341,Таволжанка (Грибановский район),Таволжанка,Село,51.30472,41.58111,,,,1 человек (2017
342,Теллермановский,Теллермановский,Посёлок,51.365,42.04889,,,,
343,Тихвинка (Воронежская область),Тихвинка,Село,51.36639,41.51167,,,,
344,Тупки (Воронежская область),Тупки,Посёлок,51.45417,41.49389,,,,
345,Хомутовка (Воронежская область),Хомутовка,Село,51.55083,41.26361,,,,
346,Чичерино (Воронежская область),Чичерино,Посёлок,51.57167,42.05694,,,,
347,Благовещенский (Калачеевский район),Благовещенский,Хутор,50.535,41.40472,,,,9
348,Блощицын,Блощицын,Хутор,50.46083,41.29417,,,,4
349,Гаранькин (хутор),Гаранькин,Хутор,50.475,40.91861,,,,2
350,Гринёв (Калачеевский район),Гринёв,Хутор,50.495,40.90722,,,,9
351,Грушовое (Калачеевский район),Грушёвое,Хутор,50.3465972,40.7374667,,,,3 человека (2010
352,Долбнёвка,Долбнёвка,Хутор,50.49083,41.14722,,,,
353,Журавлёво (Воронежская область),Журавлёво,Хутор,50.3509917,40.8157444,,,,5 человек (2010
354,Заброды (Воронежская область),Заброды,Село,50.39917,41.02889,1998,,,9043
355,Залесный (Воронежская область),Залесный,Хутор,50.41028,40.91472,,,,10
356,Ильинка (Калачеевский район),Ильинка,Село,50.44278,41.11556,,,,31
357,Калач (город),Калач,Город,50.42583,41.01556,в 1716 году,,20[1] км²,18221
358,Калачеевский,Калачеевский,Посёлок,50.33944,41.16139,,,,82
359,Колос (Воронежская область),Колос,Посёлок,50.3475,41.27861,1998,,,
360,Коренное (Воронежская область),Коренное,Село,50.57083,41.44,XVIII век,,,81 челове
361,Крутой (Воронежская область),Крутой,Хутор,50.47389,40.8775,,,,7
362,Лесково (Калачеевский район),Лесково,Село,50.37515,40.7230472,,,,27 человек (2010
363,Манино (Воронежская область),Манино,Село,50.48694,41.39139,XVIII век,,,409
364,Медвежье (Калачеевский район),Медвежье,Село,50.55083,40.695,,,,81
365,Морозов (Воронежская область),Морозов,Хутор,50.40417,40.81278,,,,3
366,Морозовка (Калачеевский район),Морозовка,Хутор,50.38972,40.57028,,,,35
367,Николенков (хутор),Николенков,Хутор,50.465,40.98028,,,,0
368,Новая Криуша,Новая Криуша,Село,50.25972,41.29639,,,,1941
369,Новомеловатка,Новомеловатка,,50.44472,40.78667,1732,,,950
370,Переволочное (Воронежская область),Переволочное,Село,50.31,40.70333,1786,,"4,1 км²",64
371,Пирогово (Воронежская область),Пирогово,Село,50.44722,40.6075,,,,
372,Подгорное (Калачеевский район),Подгорное,Село,50.46694,41.18528,,,,
373,Попасное (Калачеевский район),Попасное,Село,50.48639,40.66861,,,,
374,Поплавский (Воронежская область),Поплавский,Хутор,50.4875,40.985,,,,
375,Пригородный (Воронежская область),Пригородный,Посёлок,50.36972,41.01722,,,,4163
376,Пришиб (Воронежская область),Пришиб,Село,50.45722,41.00778,,,,
377,Репяховка (Воронежская область),Репяховка,Хутор,50.4970639,40.791025,,,,
378,Россоховатое (Воронежская область),Россоховатое,Хутор,50.41694,40.55972,,,,
379,Россыпное (Воронежская область),Россыпное,Село,50.52833,40.66194,,,,
380,Рыбкин (хутор),Рыбкин,Хутор,50.41806,40.93417,,,,
381,Семёновка (Калачеевский район),Семёновка,Село,50.42278,40.58611,,,,666
382,Сереженков (хутор),Сереженков,Хутор,50.39778,40.98417,,,, человека (2005
383,Серяково,Серяково,Село,50.52583,41.15556,,,,
384,Скрипниково,Скрипниково,Село,50.25889,41.38639,,,,
385,Советское (Воронежская область),Советское,Село,50.3533417,41.3969833,,,,330
386,Хвощеватое (Воронежская область),Хвощеватое,Хутор,50.5668278,40.7512,,,,
387,Хлебороб (Калачеевский район),Хлебороб,Хутор,50.34333,41.24528,,,,
388,Хрещатое (Воронежская область),Хрещатое,Село,50.3606556,40.701075,,,,39 человек (2010
389,Чернозёмный,Чернозёмный,Посёлок,50.27,41.09528,,,,
390,Четвериково (Воронежская область),Четвериково,Село,50.36806,40.83083,,,,84 человека (2010
391,Ширяево (Воронежская область),Ширяево,Село,50.3277,40.9503278,1725-1730 гг,,"132,18 км²",273 человека (2015
392,Юнаково,Юнаково,Село,50.50278,40.59694,,,,
393,Яроватое,Яроватое,Хутор,50.3509917,40.6797889,,,,9 человек (2010
394,Ясеновка (Воронежская область),Ясеновка,Село,50.52667,40.79833,,,,30 челове
395,Атамановка (Каменский район),Атамановка,Хутор,50.6563111,39.365325,,,,0
396,Верхние Марки,Верхние Марки,Село,50.7632861,39.6061639,,,,83
397,Волчанское (Воронежская область),Волчанское,Село,50.7751028,39.5313972,,,,54
398,Воронежская область,Воронежская область,Субъект Российской Федерации,51.05,40.15,13 июня 1934 года,,,
399,Воронец (Воронежская область),Воронец,Хутор,50.5335667,39.2332806,,,,
400,Гойкалово,Гойкалово,Хутор,50.6766222,39.2710667,,,,2
401,Дальнее Стояново,Дальнее Стояново,Хутор,50.7033139,39.2810222,,,,7
402,Дегтярное (Воронежская область),Дегтярное,Село,50.64583,39.27417,,,,6
403,Евдаково (село),Евдаково,Село,50.75083,39.38528,,,,76
404,Ивченково,Ивченково,Хутор,50.67785,39.5495167,,,,2
405,"Каменка (посёлок городского типа, Воронежская область)",Каменка,Посёлок городского типа,50.7125,39.43278,1750,XVIII век,,7953
406,Карпенково (Воронежская область),Карпенково,Село,50.616575,39.339917,,,,83
407,Кириченково (Воронежская область),Кириченково,Село,50.692875,39.3897,,,,18
408,Коденцово,Коденцово,Село,50.60722,39.44472,,,,647
409,Козки,Козки,Хутор,50.7967611,39.6974889,,,,6
410,Крутец (Воронежская область),Крутец,Хутор,50.7962139,39.47475,,,,98
411,Лесково (Каменский район),Лесково,Хутор,50.701775,39.5682278,,,,
412,Ляпино (Воронежская область),Ляпино,Хутор,50.7692472,39.379475,,,,4
413,Марки (Воронежская область),Марки,Село,50.7793944,39.6782639,,,,2
414,Михново (Воронежская область),Михново,Хутор,50.742917,39.3236861,,,,3
415,Молчаново (Воронежская область),Молчаново,Хутор,50.6582111,39.5419639,,,,4
416,Новиковский (Воронежская область),Новиковский,Хутор,50.69545,39.5994694,,,,51
417,Ольхов Лог,Ольхов Лог,Село,50.5713139,39.2621583,,,,
418,Орехово (Воронежская область),Орехово,Хутор,50.5421,39.23225,,,,
419,Панково (Каменский район),Панково,Хутор,50.56375,39.36385,,,,
420,Пилипы (Воронежская область),Пилипы,Село,50.6455528,39.5066,,,,
421,Рождественский (Воронежская область),Рождественский,Хутор,50.7683361,39.7489861,,,,6
422,Рыбальчино,Рыбальчино,Хутор,50.7692472,39.4388722,,,,16
423,Свистовка (Воронежская область),Свистовка,Хутор,50.6244361,39.23795,,,,
424,Себелево,Себелево,Хутор,50.702,39.66,,,,
425,Ситниково (Воронежская область),Ситниково (Пушкино),Хутор,50.6806361,39.2995639,,,,
426,Солонцы (Каменский район),Солонцы,Хутор,50.7065694,39.5805889,,,,
427,Сончино (Воронежская область),Сончино,Село,50.6912861,39.5096917,,,,
428,Татарино (Воронежская область),Татарино,Село,50.58639,39.13278,,,,
429,Тимирязево (Каменский район),Тимирязево,Село,50.718075,39.3803361,,,,36
430,Трёхстенки,Трехстенки,Село,50.66083,39.44222,,,,
431,Тхоревка,Тхоревка,Село,50.7038389,39.3284028,,,,
432,Фриденфельд (хутор),Фриденфельд,Хутор,50.5448278,39.2457417,1923,,,
433,Хвощеватый (Каменский район),Хвощеватый,Хутор,50.65833,39.23667,,,,
434,Шапошниково (Воронежская область),Шапошниково,Хутор,50.64075,39.4781056,,,,
435,Щербаково (Воронежская область),Щербаково,Село,50.80389,39.34639,,,,
436,Ярки (Каменский район),Ярки,Село,50.73556,39.26639,,,,
437,Ясеново (Воронежская область),Ясеново,,50.80278,39.39972,,,,20
438,Андрюшевка (Воронежская область),Андрюшевка,Село,49.68139,40.21972,,,,9
439,Бондарево (Воронежская область),Бондарево,Село,49.79528,39.4375,,,,8
440,Бык (Воронежская область),Бык,Хутор,49.62028,40.02389,,,,
441,Валентиновка (Воронежская область),Валентиновка,Село,49.9325,39.74528,,,, 280 человек (2010
442,Васильевка (Кантемировский район),Васильевка,Хутор,49.93667,39.66528,,,,
443,Викторовка (Воронежская область),Викторовка,Село,49.69167,40.23528,,,,6
444,Волоконовка (Воронежская область),Волоконовка,Село,49.8425,39.38833,,,,38
445,Гармашевка,Гармашевка,Сельское поселение,49.6475,40.07583,,,,02 человека (2010
446,Гартмашевка,Гартмашевка,Посёлок при станции,49.60694,39.97278,,,,0
447,Дальний Россоховатый,Дальний Россоховатый,Хутор,49.61361,39.97278,,,,8
448,Евдокиевка (Воронежская область),Евдокиевка,Село,49.96611,39.73194,,,,78
449,Журавка (Кантемировский район),Журавка,Село,49.78583,39.78306,,,,22
450,Зайцевка (Воронежская область),Зайцевка,Село,49.68583,40.00972,,,,45
451,Златополь (Воронежская область),Златополь,Хутор,49.87528,39.59139,,,,3
452,Казимировка (Воронежская область),Казимировка,Хутор,49.73056,39.77556,,,,60
453,Кантемировка,Кантемировка,Посёлок городского типа,49.70167,39.85361,1742,XVIII век,,10704
454,Каплин (хутор),Каплин,Хутор,49.79667,40.22889,,,,
455,Касьяновка (Воронежская область),Касьяновка,Село,49.74056,39.79,,,,6
456,Коваленковский,Коваленковский,Посёлок,49.72528,40.25028,,,,0
457,Колесниковка (Кантемировский район),Колесниковка,Село,49.66972,40.11583,,,,5
458,Колещатовка,Колещатовка,Село,49.57889,39.89083,,,,8
459,Криничный (Воронежская область),Криничный,Хутор,49.67306,40.3375,,,,0
460,Кузнецовский (Воронежская область),Кузнецовский,Посёлок,49.70056,40.30167,,,,11
461,Куликовка (Воронежская область),Куликовка,Село,49.84056,39.51556,,,,59
462,Лебедев (Воронежская область),Лебедев,Хутор,49.87611,39.73528,,,,
463,Лиман (Воронежская область),Лиман,Хутор,49.89861,39.755,,,,9
464,Митрофановка (Кантемировский район),Митрофановка,Село,49.96833,39.69417,,,, 6199 человек (2012
465,Михайловка (Кантемировский район),Михайловка,Село,49.88556,39.63028,,,,28
466,Новобелая (Воронежская область),Новобелая,Село,49.81333,39.30306,,,,1315
467,Новомарковка (Воронежская область),Новомарковка,Село,49.71667,39.74917,,,,
468,Осиковка,Осиковка,Село,49.66639,40.26917,,,,
469,Пасеково (Воронежская область),Пасеково,Хутор,49.86333,39.72722,,,,
470,Пасюковка,Пасюковка,Село,49.81611,39.70389,,,,
471,Первомайский (Кантемировский район),Первомайский,Посёлок,49.73139,39.99194,,,,
472,Писаревка (Кантемировский район),Писаревка,Село,49.88333,40.18444,,,,
473,Попасное (Кантемировский район),Попасное,Село,49.67639,39.64444,,,,
474,Посёлок Охрового Завода,Охрового Завода,Посёлок,49.76944,39.84194,1912,,,
475,Рудаевка,Рудаевка,Село,49.77583,40.10806,,,,
476,Сергеевка (Кантемировский район),Сергеевка,Хутор,49.65722,40.21639,,,,
477,Скнаровка,Скнаровка,Село,49.81278,39.93972,,,,
478,Смаглеевка,Смаглеевка,Село,49.79722,39.89528,,,,
479,Солонцы (Кантемировский район),Солонцы,Хутор,49.92667,39.71333,,,,
480,Солёный (Воронежская область),Солёный,Хутор,49.83222,39.65444,,,,47
481,Софиевка (Воронежская область),Софиевка,Село,49.96556,39.60611,,,,
482,Талы (Воронежская область),Талы,Село,49.85444,40.07278,,,,674 человека (2014
483,Титаревка,Титаревка,Село,49.74417,40.16139,,,,12
484,Фисенково,Фисенково,Село,49.90167,39.83139,,,,46 человек (2010
485,Хрещатый (Воронежская область),Хрещатый,Хутор,49.61806,39.70111,,,,
486,Чехуровка,Чехуровка,Село,49.82722,39.98361,,,,
487,Шевченко (Воронежская область),Шевченко,Хутор,50.02139,39.74,,,,
488,Шевченково (Воронежская область),Шевченково,Село,49.84806,39.8025,,,,55
489,Штеповка (Воронежская область),Штеповка,Хутор,49.64278,40.25556,,,,
490,40 лет Октября (Воронежская область),40 лет Октября,Посёлок,51.44139,39.22083,,,,4
491,Бирюченское,Бирюченское,Село,51.41944,39.52778,,,,48
492,Боево (Воронежская область),Боево,Населённый пункт,51.39444,39.31972,1769,,9.349 тыс. га км²,1961
493,Верхнее Марьино,Верхнее Марьино,Село,51.28028,39.51278,,,,8
494,Данково (Воронежская область),Данково,Село,51.29083,39.5325,,,,226
495,Запрудское,Запрудское,Село,51.34833,39.72556,,,,683
496,Каменно-Верховка,Каменно-Верховка,Село,51.35806,39.1525,1769,,,437
497,Карамышево (Воронежская область),Карамышево,Посёлок,51.26389,39.54028,,,,1
498,Каширское (Воронежская область),Каширское,Село,51.40833,39.59167,,,,4342
499,Колодезный (Воронежская область),Колодезный (Воронежская область),Г,51.35,39.29611,,,, 000 человек (2021  Население
500,Коломенское (Воронежская область),Коломенское,Село,51.43667,39.66722,,,,29
501,Коммуна (Воронежская область),Коммуна,Посёлок,51.2325,39.68889,,,,7
502,Кондрашкино,Кондрашкино,Село,51.395,39.67917,,,,97
503,Красная Хворостань,Красная Хворостань,Посёлок,51.445,39.7275,,,, челове
504,Красные Солонцы (Каширский район),Красные Солонцы,Посёлок,51.46667,39.65361,,,,9
505,Красный Лог (Каширский район),Красный Лог,Село,51.38694,39.7725,,,,483 человека (2010
506,Круглое (Воронежская область),Круглое,Село,51.32583,39.29694,,,,26
507,Ламакин (хутор),Ламакин,Хутор,51.42833,39.47861,,,, челове
508,Левая Россошь,Левая Россошь,Село,51.33389,39.40167,,,,1054
509,Михайловка (Каширский район),Михайловка,Хутор,51.28444,39.28556,,,,6
510,Михалёвский (хутор),Михалёвский,Хутор,51.29917,39.72889,,,,
511,Можайское (Воронежская область),Можайское,Село,51.31583,39.6525,959,,,22
512,Мосальское (Воронежская область),Мосальское,Село,51.34306,39.53417,,,,537
513,Олень-Колодезь,Олень-Колодезь,Село,51.37056,39.24417,1770,,,
514,Посёлок имени Дзержинского (Воронежская область),имени Дзержинского,Посёлок,51.45528,39.23056,,,,838
515,Рябчево,Рябчево,Посёлок,51.31361,39.49889,,,,
516,Солонцы (Каширский район),Солонцы,Село,51.31028,39.45083,,,,
517,Старина (Воронежская область),Старина,Село,51.30389,39.49917,,,,
518,Степной (Воронежская область),Степной,Посёлок,51.2775,39.73,,,,
519,"Аношкино (посёлок, Воронежская область)",Аношкино,Посёлок,51.240361,39.3537361,,,,56
520,"Аношкино (село, Воронежская область)",Аношкино,Село,51.2013389,39.269278,,,,25
521,Берёзово (Лискинский район),Берёзово,Хутор,51.09111,39.57833,,,,1 человек (2011
522,Бодеевка,Бодеевка,Село,51.11889,39.28222,,,,3
523,Владимировка (Лискинский район),Владимировка,Село,50.831825,39.8826028,,,,60
524,Вознесеновка (Лискинский район),Вознесеновка,Село,51.17472,39.43722,,,,1095
525,Высокое (Лискинский район),Высокое,Село,51.05306,39.48778,,,,294
526,Вязники (Воронежская область),Вязники,Хутор,50.9722944,39.4008667,,,,6
527,Давыдовка (Воронежская область),Давыдовка,Посёлок городского типа,51.1540889,39.4301472,1766,,,4784
528,Демченков (хутор),Демченков,Хутор,50.8536889,39.3536556,,,,8
529,Дивногорье (Воронежская область),Дивногорье,Хутор,50.9503972,39.2913472,,,,51
530,Дмитриевка (Лискинский район),Дмитриевка,Село,51.2021083,39.4626083,,,,62
531,Добрино (Воронежская область),Добрино,Село,51.2305722,39.5299,,,,96
532,Дракино (Лискинский район),Дракино,Село,51.1409333,39.4088139,1770,,,150 человек (2007
533,Дубовый (Лискинский район),Дубовый,Хутор,51.067775,39.717528,,,,7
534,Духовое (Лискинский район),Духовое,Село,50.960667,39.7996778,,,,4
535,Екатериновка (Лискинский район),Екатериновка,Слобода,50.840175,39.676425,,,,51
536,Ермоловка (Воронежская область),Ермоловка,Село,51.1922667,39.4260972,,,,89
537,Залужное (Воронежская область),Залужное,Село,50.9473639,39.5213667,,,,970
538,Калач (хутор),Калач,Хутор,50.99139,39.44361,,,,295
539,Ковалёво (Воронежская область),Ковалёво,Село,50.883361,39.3961028,,,,303
540,Коломыцево (Воронежская область),Коломыцево,Село,50.8793167,39.5278972,,,,31
541,Колыбелка,Колыбелка,Село,50.8407278,39.826375,,1653[1],,309
542,Копанище,Копанище,Село,51.0039333,39.3339194,,,,880
543,Лиски,Лиски,Город,50.98222,39.49944,1965 год,в 1576 году упоминается деревня Покровка,65[1] км²,53504
544,"Лиски (село, Воронежская область)",Лиски,Село,50.945,39.48944,,,,490
545,Лискинское,Лискинское,Село,51.02444,39.5475,,,,505
546,Луговой (Лискинский район),Луговой,Хутор,51.1682333,39.4104222,,,,95
547,Масловка (Воронежская область),Масловка,Микрорайон,51.0005333,39.7585111,,,,34
548,Машкино (Воронежская область),Машкино,Село,51.14083,39.34167,,,,73
549,Мелахино,Мелахино,Село,50.8577,39.333575,,,,1
550,Мисево,Мисево,Село,50.8685639,39.3219028,,,,3
551,Михайловский (Лискинский район),Михайловский,Хутор,50.8924833,39.6157833,,,,3 человека (2011
552,Нижнемарьино,Нижнемарьино,Село,51.2234583,39.4928194,,,,190
553,Нижний Икорец,Нижний Икорец,Село,50.9793111,39.7107583,,,,696
554,Николаевка (Лискинский район),Николаевка,Село,50.9,39.806,,,,0
555,Никольский (Лискинский район),Никольский,Хутор,50.944325,39.5721778,,,,52
556,Новая Грань,Новая Грань,Хутор,50.8723361,39.6716194,,,,4 человек (2011
557,Новозадонский,Новозадонский,Хутор,51.12389,39.3125,,,,5
558,Новониколаевский (Воронежская область),Новониколаевский,Хутор,51.10889,39.24889,,,,
559,Осинки (Лискинский район),Осинки,Хутор,51.2420861,39.2586361,,,,1 человек (2011
560,Первое Мая (Воронежская область),Первое Мая,Хутор,50.8912333,39.594028,,,, человека (2011
561,Переезжее,Переезжее,Село,50.9169639,39.75725,,,,
562,Песковатка (Лискинский район),Песковатка,Село,51.0638833,39.7934,,,,
563,Петровское (Лискинский район),Петровское,Село,50.8547389,39.6153139,,,,
564,Петропавловка (Лискинский район),Петропавловка,Село,51.0043667,39.1986444,,,,
565,Подлесный (Лискинский район),Подлесный,Хутор,51.01528,39.38667,,,,
566,Попасное (Лискинский район),Попасное,Хутор,50.8645444,39.4763972,,,,
567,Посёлок 2-го отделения совхоза «2-я Пятилетка»,2-го отделения совхоза «2-я Пятилетка»,Посёлок,51.06694,39.58083,,,,5
568,Посёлок санатория имени Цюрупы,санатория имени Цюрупы,Посёлок,51.0304333,39.7807944,,,,89
569,Посёлок совхоза «2-я Пятилетка»,совхоза «2-я Пятилетка»,Посёлок,51.07778,39.53528,,,,161
570,Почепское,Почепское,Село,51.18722,39.47139,,,,130
571,Прияр,Прияр,Хутор,50.7878194,39.8587333,,,,17 человек (2010
572,Прогонный (Воронежская область),Прогонный,Хутор,51.1626222,39.3960028,1959,,,
573,Путчино (Воронежская область),Путчино,Хутор,50.8642472,39.384775,,,,
574,Пухово (Воронежская область),Пухово,Село,50.8562861,39.4262722,,,,
575,Рождествено (Воронежская область),Рождествено,Село,51.2475972,39.5371083,,,,
576,Свобода (Лискинский район),Свобода,Хутор,50.81972,39.73583,,,, человек (2011
577,Солонцы (Лискинский район),Солонцы,Хутор,51.0154778,39.7698417,,,,
578,Среднеикорецкой больницы,Среднеикорецкой больницы,Посёлок,51.0550917,39.7959333,,,,6 человек (2011
579,Средний Икорец,Средний Икорец,Село,51.07361,39.75333,неизвестно,,,946
580,Старая Покровка (Воронежская область),Старая Покровка,Хутор,51.01056,39.42,,,,
581,Старая Хворостань,Старая Хворостань,Село,51.17361,39.3025,,,,
582,Сторожевое 2-е,Сторожевое 2-е,Село,51.1133639,39.6566444,,,,
583,Стрелка (Воронежская область),Стрелка,Хутор,51.0442722,39.7622889,,,,65
584,Студёновка (Лискинский район),Студёновка,Хутор,51.1522583,39.3860472,,,,9 человек (2011
585,Титчиха (хутор),Титчиха,Хутор,51.174275,39.264,,,,
586,Тресоруково,Тресоруково,Село,51.2109528,39.5185694,,,,
587,Троицкое (Лискинский район),Троицкое,Село,51.08111,39.23444,,,,1019
588,Фёдоровский (Воронежская область),Фёдоровский,Хутор,51.1193278,39.775175,,,,9
589,Шепелев (хутор),Шепелев,Хутор,50.9003,39.3724139,,,,1
590,Щучье (Лискинский район),Щучье,Село,50.9381139,39.7385667,,,,29
591,Андреевка (Нижнедевицкий район),Андреевка,Деревня,51.6825389,38.5273028,,,,60
592,Афонино (Воронежская область),Афонино,Хутор,51.6762417,38.4752889,,,,5
593,Бобров (Нижнедевицкий район),Бобров,Хутор,51.4383694,38.5279889,,,,
594,Большая Мездрянка,Большая Мездрянка,Хутор,51.4016333,38.5979389,,,,
595,Бор (Нижнедевицкий район),Бор,Село,51.5109194,38.4005861,,,,1
596,Верхнее Турово,Верхнее Турово,Село,51.6126972,38.585325,,,,1384
597,Верховье (Воронежская область),Верховье,Хутор,51.2830306,38.5055472,,,,
598,Вязноватовка,Вязноватовка,Село,51.5772,38.4685944,,,,1016
599,Глазово (Нижнедевицкий район),Глазово,Село,51.5041722,38.5051278,,,,82
600,Губаново (Воронежская область),Губаново,Хутор,51.663861,38.3389889,,,,3
601,Дмитриевский (Воронежская область),Дмитриевский,Хутор,51.2835222,38.3646278,,,,97
602,Долгий (Воронежская область),Долгий,Хутор,51.312325,38.5121639,,,,
603,Дружба (Нижнедевицкий район),Дружба,Хутор,51.26015,38.5486583,,,,
604,Золотой (Воронежская область),Золотой,Хутор,51.4081056,38.559925,,,,
605,Каменный Буерак (Воронежская область),Каменный Буерак,Хутор,51.3828528,38.3114028,,,,0
606,Ключи (Нижнедевицкий район),Ключи,Хутор,51.2641167,38.5829833,,,,
607,Князев (хутор),Князев,Хутор,51.6504083,38.4770056,,,,1
608,Колесников (Воронежская область),Колесников,Хутор,51.4563917,38.4837083,,,,
609,Комяга (хутор),Комяга,Хутор,51.4344833,38.4402389,,,,
610,Курбатово (Воронежская область),Курбатово,Посёлок,51.6470972,38.5829222,,,,068 человек (2016) челове
611,Кучугуры (Воронежская область),Кучугуры,Село,51.5968778,38.3146139,,,,75
612,Лавров (Воронежская область),Лавров,Хутор,51.426139,38.5647333,,,,3
613,Лебяжье (Нижнедевицкий район),Лебяжье,Село,51.3324139,38.3457694,,,,3
614,Лог (Воронежская область),Лог,Село,51.575917,38.3692028,,,,22
615,Малиновка (Нижнедевицкий район),Малиновка,Хутор,51.686275,38.4285972,,,,
616,Михнёво (Воронежская область),Михнёво,Село,51.4735472,38.55889,,,,70
617,Моховой (Воронежская область),Моховой,Хутор,51.4125889,38.405222,,,,4
618,Нижнедевицк (посёлок),Нижнедевицк,Посёлок,51.6849667,38.3247,,,,70
619,Нижнедевицк (село),Нижнедевицк,Село,51.54833,38.36861,,XVII век,,656 человек (2016
620,Нижнее Турово,Нижнее Турово,Село,51.5350389,38.6138194,1648 год.,1648,,488
621,Новая Ольшанка (Воронежская область),Новая Ольшанка,Село,51.6494222,38.3918194,,,,14
622,Острянка,Острянка,Село,51.29194,38.40472,,,,
623,Парный (хутор),Парный,Хутор,51.6122694,38.311525,,,, человека (2019
624,Парточки (Воронежская область),Парточки,Хутор,51.5849028,38.273417,,,,
625,Першино (Воронежская область),Першино,Село,51.4953722,38.3799194,,,,
626,Петровка (Нижнедевицкий район),Петровка,Посёлок,51.5135972,38.4526,,,,
627,Плотницкий (хутор),Плотницкий,Хутор,51.4289278,38.600775,19-20 век,,,4 человек (2019
628,Подорожное (Воронежская область),Подорожное,Хутор,51.67972,38.34333,,,,
629,Поляна (Нижнедевицкий район),Поляна,Хутор,51.67667,38.35583,,,,
630,Посёлок совхоза «Кучугуровский»,Совхоза «Кучугуровский»,Посёлок,51.4208556,38.3196417,,,,
631,Посёлок совхоза «Нижнедевицкий»,Совхоза «Нижнедевицкий»,Посёлок,51.625,38.246,,,,
632,Проточный (Воронежская область),Проточный,Хутор,51.6995,38.4645,,,,
633,Семёнов (Воронежская область),Семёнов,Хутор,51.2540917,38.4505694,,,,
634,Синие Липяги,Синие Липяги,Село,51.37845,38.4807528,,,,357 человек (2010
635,Скупая Потудань (село),Скупая Потудань,Село,51.23528,38.49417,,,,
636,Скупой (хутор),Скупой,Хутор,51.3426528,38.6168778,XIX-XX век,,, человека (2019
637,Старых (хутор),Старых,Хутор,51.6667417,38.5911611,,,,
638,Сычёвка (Воронежская область),Сычёвка,Хутор,51.4286889,38.4017889,,,,
639,Фролов (Воронежская область),Фролов,Хутор,51.299525,38.3199417,,,,
640,Хвощеватовка,Хвощеватовка,Село,51.4098222,38.341575,,,,
641,Широкий (Нижнедевицкий район),Широкий,Хутор,51.644761,38.156308,,,,
642,2-го отделения совхоза «Масловский»,2-го отделения совхоза «Масловский»,Посёлок,51.5,39.44,,,,335
643,2-го отделения совхоза «Новоусманский»,2-го отделения совхоза «Новоусманский»,Посёлок,51.5010083,39.4373944,,,,189
644,Александровка (Новоусманский район),Александровка,Село,51.6014919,39.3261248,,,,550
645,Андреевка (Новоусманский район),Андреевка,Посёлок,51.7820528,39.7371197,,,,81
646,Бабяково,Бабяково,Село,51.68833,39.37278,1595,1595,,2678
647,Битюг (Воронежская область),Битюг,Посёлок,51.594517,39.764052,,,,17
648,Благодатный (Воронежская область),Благодатный,Посёлок,51.77388763,39.77916718,,,,0
649,Веневитинский,Веневитинский,Посёлок,51.8127456,39.3857998,,,,1
650,Волна-Шепелиновка,Волна-Шепелиновка,Посёлок,51.5955077,39.6243596,,,,20
651,Воля (Новоусманский район),Воля,Посёлок,51.76556,39.53722,,,,803 человека (2010
652,Горенские Выселки,Горенские Выселки,Село,51.5502306,39.7474408,,,,89 человек (2008
653,Горки (Воронежская область),Горки,Село,51.7150002,39.5841675,,,,389
654,Дружелюбие (посёлок),Дружелюбие,Посёлок,51.54333496,39.5280571,,,,204
655,Казанская Хава,Казанская Хава,Село,51.5790429,39.7132587,,,,26 человек (2010
656,Крыловка (Воронежская область),Крыловка,Село,51.5181676,39.6640348,,,,61 человек (2010
657,Лекарственный,Лекарственный,Посёлок,51.4973489,39.5942652,,,,323
658,Лутовиновка (Воронежская область),Лутовиновка,Деревня,51.5524195,39.7032165,,,,9
659,Луч (Воронежская область),Луч,Посёлок,51.6098497,39.4881649,,,,32
660,Макарье (Воронежская область),Макарье,Село,51.77611,39.65361,,,,48 человек (2007
661,Маклок (Воронежская область),Маклок,Посёлок,51.811597,39.4142085,,,,15
662,Малые Горки (Воронежская область),Малые Горки,Посёлок,51.69388962,39.6016655,,,,44
663,Михайловка (Новоусманский район),Михайловка,Деревня,51.5037469,39.6713733,,,,688
664,Нечаевка (Воронежская область),Нечаевка,Посёлок,51.6294196,39.3530702,,,,246
665,Нижняя Катуховка,Нижняя Катуховка,Село,51.6837583,39.880375,,,,604
666,Никольское (Новоусманский район),Никольское,Посёлок,51.68972,39.75222,,1859,,2 человека (2007
667,Новая Усмань,Новая Усмань,Село,51.64389,39.41028,,1598,34.519 км² км²,29270
668,Новосёлки (Воронежская область),Новосёлки,Посёлок,51.596833,39.7830111,,,,
669,Орлово (Воронежская область),Орлово,Село,51.75139,39.59417,1645,,,427 человек (2016
670,Отрадное (Новоусманский район),Отрадное,Посёлок,51.6567917,39.334944,1968,,,4581
671,Парусное (Воронежская область),Парусное,Деревня,51.5868417,39.5216846,,,,920
672,Петропавловка (Новоусманский район),Петропавловка,Посёлок,51.66806,39.74722,,XVIII век,,125 человек (2007
673,Плясово-Китаево,Плясово-Китаево,Посёлок,51.7125,39.66944,,,, человека (2007
674,Плясово-Снежково,Плясово-Снежково,Посёлок,51.67944,39.64278,,,,5 человек (2007
675,Подклетное (Новоусманский район),Подклетное,Деревня,51.5885892,39.4638348,,,,179
676,Посёлок совхоза «Воронежский»,Совхоза «Воронежский»,Посёлок,51.6704778,39.2980444,,,,1870
677,Посёлок южного отделения совхоза имени Дзержинского,Южного отделения совхоза имени Дзержинского,Посёлок,51.72639,39.71528,,,,186
678,Ракитное (Воронежская область),Ракитное,Посёлок,51.7913444,39.5263417,,,,
679,Рогачёвка (Воронежская область),Рогачёвка,Село,51.5175,39.56472,,,,820 человек (2010
680,Рождественская Хава,Рождественская Хава,Село,51.65667,39.69972,1706,,,2357 человек (2007
681,Рыкань,Рыкань,Село,51.62083,39.55194,1690,,,052 человека (2010
682,Садовый (Воронежская область),Садовый,Посёлок,51.5109054,39.6842051,,,,205
683,Софьино (Воронежская область),Софьино,Посёлок,51.51833344,39.39777756,,,,0
684,Стахановский (Воронежская область),Стахановский,Посёлок,51.7808315,39.4061296,,,,19
685,Тамлык (посёлок),Тамлык,Посёлок,51.5633316,39.538887,,,,7
686,Тимирязево (Новоусманский район),Тимирязево,Посёлок,51.57778,39.65,,,,750
687,Трудовое (Воронежская область),Трудовое,Посёлок,51.7647904,39.7247815,,,,512
688,Трудолюбовка (Воронежская область),Трудолюбовка,Село,51.65527725,39.88305664,,,,101
689,Успенская Хава,Успенская Хава,Посёлок,51.6019459,39.682762,,,,15
690,Ушановка,Ушановка,Село,51.5321074,39.6307754,,,,7 человек (2010
691,Хлебное (Воронежская область),Хлебное,Село,51.61263,39.808779,1806,,,39 человек (2007
692,Хреновое (Новоусманский район),Хреновое,Село,51.66528,39.58444,,,,999
693,Шуберское,Шуберское,Посёлок,51.7541335,39.4325387,,,,2150
694,Ёлка (Воронежская область),Ёлка,Посёлок,51.129,41.2814,,,,
695,Аверинка (Воронежская область),Аверинка,Посёлок,50.85,41.37,,,,1 челове
696,Алексеевский (Новохопёрский район),Алексеевский,Посёлок,51.1083,41.3814,,,,2
697,Алфёровка (Воронежская область),Алфёровка,Село,51.2,41.68,,,,13
698,Башковский,Башковский,Посёлок,51.238,41.25,,,,22
699,Берёзовка (Новохопёрский район),Берёзовка,Посёлок,51.06,41.24,,,,52
700,Богдань (Воронежская область),Богдань,Хутор,51.165,41.818,,,,39
701,Большевик (Воронежская область),Большевик,Посёлок,51.0212055,41.6102886,,,,171
702,Бороздиновский,Бороздиновский,Посёлок,51.207,41.34,,,,75
703,Бурляевка,Бурляевка,Село,50.99611,41.33667,,,,51
704,Варварино (Воронежская область),Варварино,Посёлок,51.2093012,41.7204093,,,,165
705,Владимировка (Новохопёрский район),Владимировка,Посёлок,50.95139,41.29667,,,,
706,Глинкино (Воронежская область),Глинкино,Посёлок,51.1133093,41.8092012,,,,1
707,Горелые Ольхи,Горелые Ольхи,Посёлок,51.187,41.176,,,,5
708,Димитровский (Воронежская область),Димитровский,Посёлок,51.1344667,41.146775,,,,2
709,Долгинка,Долгинка,Посёлок,51.0480987,41.045984,,,,90
710,Долиновский,Долиновский,Посёлок,50.993,41.102,,,,85
711,Елань-Колено,Елань-Колено,Село,51.15,41.21667,1725,1712,"8,8 км²",",6 тыс. человек человек (2011"
712,Елань-Коленовский,Елань-Коленовский,Посёлок городского типа,51.16333,41.14639,,1936,,3493
713,Жёлтые Пруды,Жёлтые Пруды,Посёлок,50.984,41.216,,,,49
714,Замельничный,Замельничный,Хутор,51.11,41.66,,,,327
715,Заря (Новохопёрский район),Заря,Посёлок,51.09,41.247,,,,6
716,Ивановка (Новохопёрский район),Ивановка,Деревня,51.0742478,41.4151096,,,,13
717,Калиново (Новохопёрский район),Калиново,Посёлок,51.1684458,41.5944314,,,,20
718,Каменка-Садовка,Каменка-Садовка,Село,51.03,41.63,в 1880 году,,,7
719,Камышановский,Камышановский,Посёлок,50.935,41.385,,,,47 челове
720,Карачановский,Карачановский,Посёлок,50.9561828,41.1997819,,,,74
721,Красное (Новохопёрский район),Красное,Село,51.16,41.5,1710,,,2382
722,Ленинский (Воронежская область),Ленинский,Посёлок,51.287,41.264,,,,45
723,Лепёхинка (Воронежская область),Лепёхинка,Посёлок,50.9951169,41.0250494,,,,74
724,Михайловский (Новохопёрский район),Михайловский,Посёлок,50.9117833,41.2844,,,,35
725,Московский 2-й,Московский 2-й,Посёлок,51.298,41.218,,,,58
726,Некрылово,Некрылово,Посёлок,51.13,41.5,,,,762
727,Некрыловский,Некрыловский,Посёлок,51.05222,41.27528,,,,41
728,Новоильменский,Новоильменский,Посёлок,51.146994,41.7796325,,,,31
729,Новопокровский (Воронежская область),Новопокровский,Посёлок,51.25,41.31,,,,436
730,Новоржавец,Новоржавец,Посёлок,51.26,41.57,,,,9 человек (2011
731,Новохопёрск,Новохопёрск,Город,51.1,41.61667,в 1710 году,,14[1] км²,5855
732,Новохопёрский,Новохопёрский,Посёлок городского типа,51.07361,41.56806,,,,7771
733,Озёрный (Воронежская область),Озёрный,Посёлок,51.18908,41.8200588,,,,39
734,Пески (Новохопёрский район),Пески,Посёлок,51.1453861,41.1581083,,,,
735,Пионерский (Воронежская область),Пионерский,Посёлок,50.85,41.28,,,,35
736,Плаутино (Воронежская область),Плаутино,Посёлок,51.0603863,41.6275406,,,,22
737,Подгорное (Новохопёрский район),Подгорное,Село,51.37,41.1488,1762 год,,,62 человека (2011
738,Подосиновка (Воронежская область),Подосиновка,Село,51.125,41.35,,,,49 человек (2010
739,Полежаевский,Полежаевский,Посёлок,50.89,41.2,,,,44 человека (2010
740,Половцево (посёлок),Половцево,Посёлок,51.1171542,41.7289925,,,,85
741,Половцево (посёлок железнодорожной станции),Половцево,Железнодорожная станция,51.11,41.71,,,,8
742,Пыховка (село),Пыховка,Село,51.01944,41.50417,,,,1243
743,Русаново (Новохопёрский район),Русаново,Село,51.0984008,41.4818859,,,,44
744,Синичкин (посёлок),Синичкин,Посёлок,50.8785,41.2435,,,,0 человек (2010
745,Согласие (Воронежская область),Согласие,Посёлок,51.16,41.13,,,,
746,Соколовский (Новохопёрский район),Соколовский,Посёлок,50.9898808,41.1534977,,,,6
747,Соловки (Воронежская область),Соловки,Посёлок,51.137,41.135,,,,
748,Солонцов (посёлок),Солонцов,Посёлок,50.88,41.16,,,,9 человек (2010
749,Сорокинский,Сорокинский,Посёлок,51.203,41.277,,,,30
750,Сосновский (Воронежская область),Сосновский,Посёлок,51.218,41.237,,,,26
751,Студёный (Воронежская область),Студёный,Посёлок,51.141,41.145,,,,7
752,Терновский (Воронежская область),Терновский,Посёлок,51.0954917,41.1004833,,,,94 человек
753,Троицкое (Новохопёрский район),Троицкое,Село,51.276,41.4906,,,,965 челове
754,Тулучеевка (посёлок),Тулучеевка,Посёлок,50.9230557,41.1159038,,,,48
755,Централь (посёлок),Централь,Посёлок,50.92,41.37,,,,00 челове
756,Шевлягинский,Шевлягинский,Посёлок,51.22,41.31,,,,50
757,Щепетное,Щепетное,Посёлок,51.006,41.272,,,,
758,Ярки (Новохопёрский район),Ярки,Село,51.3475,41.14889,1811,,,1720
759,Андриановка (Воронежская область),Андриановка,Хутор,50.444,39.19,,,,18
760,Большие Базы,Большие Базы,Посёлок,50.27,39.29,,,,572
761,Бугаевка (Ольховатский район),Бугаевка,Посёлок,50.31,39.31,,,,717
762,Высокий (Ольховатский район),Высокий,Хутор,50.47,39.29,,,,49
763,Гвоздовка (Воронежская область),Гвоздовка,Село,50.29778,39.15444,,,,79
764,Долгенький,Долгенький,Хутор,50.333,39.218,,,,
765,Дроздово (Воронежская область),Дроздово,Хутор,50.334,39.39,,,,82
766,Ерёмино (Воронежская область),Ерёмино,Хутор,50.464,39.047,,,,
767,Заболотовка (Воронежская область),Заболотовка,Посёлок,50.28,39.32,,,,3156
768,Загирянка,Загирянка,Посёлок,50.278,39.255,,,,50
769,Караяшник (Воронежская область),Караяшник,Слобода,50.42,39.21,,,,626
770,Кирьянов (хутор),Кирьянов,Хутор,50.524,39.22,,,,7
771,Колесниково (Воронежская область),Колесниково,Хутор,50.48,39.08,,,,5
772,Комсомольское (Ольховатский район),Комсомольское,Посёлок,50.305,39.45,,,,2
773,Конное (Воронежская область),Конное,Посёлок,50.16389,39.18528,,начало XX века,,4
774,Копаная 1-я,Копаная 1-я,Слобода,50.456,39.08,,,,93
775,Копаная 2-я,Копаная 2-я,Слобода,50.454,39.06,,,,0
776,Костово (Воронежская область),Костово,Село,50.18667,39.16389,,,,95
777,Кошарный,Кошарный,Хутор,50.13389,39.20667,,начало XX века,,
778,Кравцовка (Воронежская область),Кравцовка,Хутор,50.4,39.08,,,,1
779,Красный Курган (Ольховатский район),Красный Курган,Посёлок,50.1975,39.23194,,,,3
780,Красный Октябрь (Воронежская область),Красный Октябрь,Хутор,50.339,39.225,,,,
781,Кривая Берёза (Воронежская область),Кривая Берёза,Хутор,50.436,39.021,,,,6
782,Крюков (Воронежская область),Крюков,Хутор,50.415,39.234,,,,81
783,Кулишовка (посёлок),Кулишовка,Посёлок,50.349,39.282,,,,3
784,Лесное Уколово (Воронежская область),Лесное Уколово,Хутор,50.48,39.294,,,,
785,Лимарев (Воронежская область),Лимарев,Хутор,50.388054,39.081974,,,,19
786,Малые Базы,Малые Базы,Посёлок,50.26,39.32,,,,660
787,Марченковка,Марченковка,Слобода,50.27,39.22,,,,619
788,Марьевка (Ольховатский район),Марьевка,Слобода,50.30667,39.14944,в 1740 году,,,590
789,Назаровка (Воронежская область),Назаровка,Хутор,50.3,39.1,,,,76
790,Неровновка,Неровновка,Слобода,50.1475,39.24056,1813,,,40
791,Новая Сотня,Новая Сотня,Хутор,50.45,39.12,,,,69
792,Новогеоргиевка (Ольховатский район),Новогеоргиевка,Хутор,50.383,39.14,,,,9
793,Новодмитриевка (Воронежская область),Новодмитриевка,Хутор,50.364,39.07,,,,1
794,Новокараяшник,Новокараяшник,Слобода,50.395,39.235,,,,192
795,Новокулишовка,Новокулишовка,Посёлок,50.35,39.28,,,,6
796,Новомосковский,Новомосковский,Хутор,50.436,39.199,,,,30
797,Новохарьковка (Воронежская область),Новохарьковка,Слобода,50.38,39.27,,,,805
798,Ольховатка (Ольховатский район),Ольховатка,Посёлок городского типа,50.28611,39.29778,1702,,,3287
799,Первомайское (Ольховатский район),Первомайское,Посёлок,50.358,39.386,,,,9
800,Песчаный (Ольховатский район),Песчаный,Хутор,50.23,39.393,,,,4
801,Политотдельское (Воронежская область),Политотдельское,Посёлок,50.39,39.42,,,,72
802,Постоялый,Постоялый,Хутор,50.41,39.4,,,,62
803,Посёлок имени Ленина (Воронежская область),Посёлок имени Ленина,Посёлок,50.479,39.166,,,,5
804,Раковка (Воронежская область),Раковка,Посёлок,50.337,39.286,,,,9
805,Ремезово (Воронежская область),Ремезово,Хутор,50.257,39.375,,,,9
806,Родина Героя,Родина Героя,Хутор,50.11972,39.18222,,1816,,23
807,Рыбный (Воронежская область),Рыбный,Хутор,50.457,39.175,,,,155
808,Саловка (Воронежская область),Саловка,Посёлок,50.31,39.3,,,,39
809,Степное (Воронежская область),Степное,Посёлок,50.16667,39.11667,,,,1
810,Шапошниковка,Шапошниковка,Слобода,50.23667,39.37722,,,,736 человек (2005
811,Юрасовка (Воронежская область),Юрасовка,Слобода,50.49,39.18,нач. 18 века,1721,,764
812,Ясиновка (Воронежская область),Ясиновка,Хутор,50.305,39.08,,,,06 человек (2011
813,Аверино (Воронежская область),Аверино,Хутор,51.02083,39.11722,,,,0
814,Александровка (Острогожский район),Александровка,Хутор,50.920259,39.227425,,,,177
815,Ближнее Стояново,Ближнее Стояново,Хутор,50.81417,39.08694,,,,580
816,Ближняя Полубянка,Ближняя Полубянка,Село,50.75222,39.20389,XVIII век,,,385
817,Болдыревка (Воронежская область),Болдыревка,Село,51.12639,39.0525,,,,496
818,Бузенки,Бузенки,Хутор,51.21639,38.94472,,,,146
819,Веретье (Воронежская область),Веретье,Село,50.78056,38.86944,,,,704
820,Верхний Ольшан,Верхний Ольшан,Село,50.76889,38.87944,,,,167
821,Весёлый (Воронежская область),Весёлый,Хутор,51.18667,39.07778,,,,13
822,Владимировка (Острогожский район),Владимировка,Хутор,50.67778,38.98306,,,,152
823,Волошино (Воронежская область),Волошино,Село,50.874,38.94,,,,582
824,Гнилое (Воронежская область),Гнилое,Село,50.81333,39.06667,,,,1028
825,Гослесопитомника (Острогожский район),Гослесопитомника,Посёлок,51.00333,39.015,,,,1
826,Гостинный,Гостинный,Хутор,51.01083,39.1375,,,,9
827,Грушевая Поляна,Грушевая Поляна,Посёлок,50.84139,38.93944,,,,276
828,Губаревка (Воронежская область),Губаревка,Хутор,50.84861,38.91889,,,,34
829,Дальняя Полубянка,Дальняя Полубянка,Село,50.72667,39.03389,,,,401
830,Девица (Острогожский район),Девица,Село,51.0775,39.11917,,,,822
831,Десятки,Десятки,Хутор,51.16306,39.00278,,,,15
832,Должик (Острогожский район),Должик,Хутор,50.82668,39.209467,,,,350
833,Дубовой (Воронежская область),Дубовой,Хутор,51.14667,39.02306,,,,156
834,Ездочное (Воронежская область),Ездочное,Село,51.02694,38.97167,,,,164
835,Завершье (Воронежская область),Завершье,Село,50.97083,38.86083,,,,123
836,Засосна (Воронежская область),Засосна,Хутор,50.77056,38.98167,,,,78
837,Ивановский (Воронежская область),Ивановский,Хутор,51.03194,39.16056,,,,27
838,Калинин (Воронежская область),Калинин,Хутор,51.04972,39.05472,,,,33
839,Клин (Воронежская область),Клин,Хутор,51.04694,39.045,,,,0
840,Кодубец,Кодубец,Хутор,50.821484,39.266241,,,,25
841,Коловатовка,Коловатовка,Деревня,50.7475,38.8825,,,,55
842,Коротояк (Воронежская область),Коротояк,Село,50.9821889,39.1865306,,1642,,1904
843,Кривая Поляна,Кривая Поляна,Село,50.64833,39.14417,,,,330
844,Криница (Острогожский район),Криница,Село,50.88694,39.24111,XVIII век,,,45 человек (2005
845,Литвиновка (Воронежская область),Литвиновка,Хутор,50.812026,39.244125,,,,5
846,Лобкин,Лобкин,Хутор,50.9355658,39.0147686,,,,1
847,Луки (Воронежская область),Луки,Посёлок,50.939589,39.241816,,,,736
848,Мастюгино,Мастюгино,Село,51.1969972,39.0410333,1654,,,657
849,Мостище (Воронежская область),Мостище,Хутор,51.03056,39.10056,,,,7
850,Нижний Ольшан,Нижний Ольшан,Село,50.75833,38.92222,в 1644 году,,,884
851,Новая Мельница (Острогожский район),Новая Мельница,Село,50.805,39.02,,,,316
852,Новая Осиновка (Воронежская область),Новая Осиновка,Село,50.785,38.94417,,,,457
853,Ново-Успенка,Ново-Успенка,Хутор,51.17194,39.08667,,,,297
854,Острогожск,Острогожск,Город,50.86667,39.06667,в 1652 году,,22[1] км²,31829
855,Павловский (Воронежская область),Павловский,Посёлок,50.855,39.15278,,,,28
856,Паленин,Паленин,Хутор,50.65111,39.11139,,,,101
857,Пахолок,Пахолок,Хутор,50.78611,39.215,,,,17
858,Пески-Харьковские,Пески-Харьковские,Посёлок,50.945855,39.267652,,,,92
859,Петренково (Воронежская область),Петренково,Село,50.78972,39.13111,,,,543
860,Петропавловка (Острогожский район),Петропавловка,Село,51.005,39.19917,,,,678
861,Покровка (Острогожский район),Покровка,Село,50.97,39.19,,,,1746
862,Посёлок 1-го отделения совхоза «Острогожский»,1-го отделения совхоза «Острогожский»,Посёлок,50.86444,38.73111,,,,76
863,Посёлок 1-го отделения совхоза «Победа»,1-го отделения совхоза «Победа»,Посёлок,50.83944,39.10333,,,,347
864,Посёлок 2-го отделения совхоза «Острогожский»,2-го отделения совхоза «Острогожский»,Посёлок,50.86361,38.89,,,,37
865,Посёлок 2-го отделения совхоза «Победа»,2-го отделения совхоза «Победа»,Посёлок,50.83972,39.13222,,,,536
866,Посёлок 3-го отделения совхоза «Победа»,3-го отделения совхоза «Победа»,Посёлок,50.83167,39.11583,,,,647
867,Посёлок Центрального отделения совхоза «Острогожский»,Центрального отделения совхоза «Острогожский»,Посёлок,50.88444,38.86222,,,,653
868,Прилепы (Острогожский район),Прилепы,Хутор,50.66417,39.14722,,,,5
869,Прокопец,Прокопец,Хутор,50.70833,39.12833,,,,24
870,Растыкайловка,Растыкайловка,Хутор,50.6575,39.16389,,,,131
871,Родники (Острогожский район),Родники,Хутор,51.16722,38.97889,,,,8
872,Русская Тростянка,Русская Тростянка,Село,50.8775,38.76583,,,,405
873,Рыбное (Воронежская область),Рыбное,Село,50.89027786,39.16249847,в 1766 году,,,427
874,Самопомощь (хутор),Самопомощь,Хутор,50.8484027,39.1202169,,,,47
875,Сельхозтехника (Воронежская область),Сельхозтехника,Посёлок,50.84667,39.11444,,,,375
876,Сибирский (Воронежская область),Сибирский,Посёлок,50.79528,39.0375,,,,54
877,Солдатское (Воронежская область),Солдатское,Село,51.04444,38.97444,,,,989
878,Средне-Воскресенское,Средне-Воскресенское,Село,50.88361,39.18167,,,,72
879,Стрелица (Острогожский район),Стрелица,Посёлок,50.86389,38.81139,,,,28
880,Таволжанка (Острогожский район),Таволжанка,Посёлок,50.89417,39.20944,,,,37
881,Труд (Воронежская область),Труд,Посёлок,50.935,39,,,,61
882,Урыв-Покровка,Урыв-Покровка,Село,51.1138833,39.1643528,,,,1647
883,Успенское (Воронежская область),Успенское,Село,50.9625,39.1775,,,,257
884,Хохол-Тростянка,Хохол-Тростянка,Село,50.80056,38.77917,,,,571
885,Шинкин,Шинкин,Хутор,50.71417,38.88861,,,,166
886,Шубное (село),Шубное,Село,50.85722,38.86306,,,,1061
887,Элеваторный (Воронежская область),Элеваторный,Посёлок,50.83083,39.09889,,,,477
888,Яблочный (Воронежская область),Яблочный,Хутор,51.155,38.99833,,,,50
889,"Александровка (Павловский район, Воронежская область)",Александровка,Село,50.5780044,40.3130436,,,,372 человека (2013
890,Александровка Донская,Александровка Донская,Село,50.516406,40.072691,,,,533 человека (2011
891,Антиповка (Воронежская область),Антиповка,Деревня,50.707997,40.016137,,,,14
892,Бабка (Воронежская область),Бабка,Село,50.559033,39.96654,1615 год,,,86 человек (2011
893,Безымянный (Воронежская область),Безымянный,Хутор,50.678345,39.993128,,,,147
894,Белая Деревня,Белая Деревня,Посёлок,50.502383,40.242384,,,,35
895,Берёзки (Воронежская область),Берёзки,Село,50.586593,40.122665,,2-я половина XVIII века,,82 человека (2011
896,Берёзово (Павловский район),Берёзово,Село,50.724066,39.952572,,,,300
897,Большая Казинка,Большая Казинка,Село,50.245522,40.079028,,,,1294 человек (2015
898,Варваровка (Павловский район),Варваровка,Село,50.29361,40.22111,,,,23
899,Воронцовка (Воронежская область),Воронцовка,Село,50.61333,40.35222,,,,138
900,Гаврильск,Гаврильск,Село,50.431175,40.3550889,,,,929
901,Гаврильские Сады,Гаврильские Сады,Село,50.429479,40.175462,,,,275
902,Грань (Воронежская область),Грань,Село,50.73056,39.78167,,,,388
903,Данило (Павловский район),Данило,Хутор,50.57967,40.456949,,,,652
904,Елизаветовка (Павловский район),Елизаветовка,Село,50.459359,40.191892,,,,
905,Ерышёвка (Воронежская область),Ерышёвка,Село,50.691445,40.211152,1698,,,
906,Желдаковка,Желдаковка,Посёлок,50.324894,40.007935,,,,27
907,Заосередные Сады,Заосередные Сады,Посёлок,50.477328,40.139052,1935 год,,,71 человек (2011
908,Каменск (Воронежская область),Каменск,Посёлок,50.459806,40.413965,,,,492
909,Карла Маркса (Воронежская область),Карла Маркса,Посёлок,50.636314,40.012238,1918,,,8 человек (2010
910,Княжево (Воронежская область),Княжево,Село,50.499042,40.210443,,,,12
911,Копанки (Павловский район),Копанки,Посёлок,50.587431,40.208412,,,,7
912,Крицкий (хутор),Крицкий,Хутор,50.611159,40.006788,,,,3 человека (2010
913,Ливенка (Павловский район),Ливенка,Село,50.730009,40.230439,1708,,,1049
914,Лосево (Павловский район),Лосево,Село,50.67056,40.03889,1697 год,,,398 человек (2010
915,Максимово (Воронежская область),Максимово,Хутор,50.742738,40.941111,,,,7 человек (2010
916,Малая Казинка (Воронежская область),Малая Казинка,Село,50.39162,40.294839,,,,60
917,Михайловка (Павловский район),Михайловка,Село,50.529258,40.238,,,,566
918,Момотов (село),Момотов,Село,50.539328,40.533701,,,,70 человек (2010
919,Николаевка (Павловский район),Николаевка,Село,50.273596,40.001099,,,,561
920,Новенький (Павловский район),Новенький,Посёлок,50.634172,40.30334,,,,43 человека (2013
921,Новомаксимово (Воронежская область),Новомаксимово,Хутор,50.76361,39.79889,,,,1
922,Павловск (Воронежская область),Павловск,Город,50.45,40.06667,в 1709 году,,"город - 8,22 км²  МО - 61,62[1] км²",24453
923,Переездной,Переездной,Хутор,50.561935,40.645281,,,,182
924,Пески (Павловский район),Пески,Село,50.724066,39.952572,,,,490
925,Петровка (Павловский район),Петровка,Село,50.527165,40.262059,,,,1917
926,Подгоры (Воронежская область),Подгоры,Хутор,50.65194,39.95889,,,,1
927,Поддубный (Воронежская область),Поддубный,Хутор,50.619467,40.167011,,,,158
928,Покровка (Павловский район),Покровка,Село,50.66889,39.84722,,,,928
929,Посёлок имени Жданова (Воронежская область),Имени Жданова,Посёлок,50.490681,40.090093,1920-е годы,,,44 человека (2011
930,Преображенка (Воронежская область),Преображенка,Село,50.413679,40.208421,,,,72
931,Рассвет (Воронежская область),Рассвет,Посёлок,50.491123,40.199007,,,,14
932,Русская Буйловка,Русская Буйловка,Село,50.36083,40.06,,,,2138
933,Ступино (Павловский район),Ступино,Хутор,50.62556,39.91083,,,,15
934,Сухое Данило,Сухое Данило,Хутор,50.56019,40.554785,,,,26
935,Сын Революции,Сын Революции,Хутор,50.569501,40.280408,1928,,,0
936,Тумановка (Воронежская область),Тумановка,Хутор,50.736206,40.266713,в 1840 году,,,50
937,Хвощеватый (Павловский район),Хвощеватый,Хутор,50.707517,40.977051,,,,7 человек (2010
938,Царёвка (Воронежская область),Царёвка,Село,50.408191,40.314072,,,,73
939,Черкасское (Воронежская область),Черкасское,Село,50.66444,39.92639,,,,368
940,Чугуновка (Воронежская область),Чугуновка,Хутор,50.724066,39.952572,,,,53
941,Шкурлат 3-й,Шкурлат Третий,Посёлок,50.3644667,40.2411611,,,,540
942,Шувалов (Воронежская область),Шувалов,Село,50.512311,40.491831,,,,807
943,Агарков (посёлок),Агарков,Посёлок,51.44306,40.0275,,,,28
944,Александровка (Панинский район),Александровка,Село,51.47639,39.94111,,,,513
945,Александровка 2-я (Панинский район),Александровка 2-я,Село,51.77528,40.40611,,,,7
946,Алое Поле (посёлок),Алое Поле,Посёлок,51.6112583,40.0528556,,,,574
947,Барсучье (Воронежская область),Барсучье,Посёлок,51.47639,39.81806,,,,1
948,Березняги (Панинский район),Березняги,Посёлок,51.6525,40.05389,XX век,,,11
949,Богородицкое (Воронежская область),Богородицкое,Посёлок,51.7120199,40.0673532,,,,35
950,Большие Ясырки (Панинский район),Большие Ясырки,Посёлок,51.68333,40.27583,XX век,,,223
951,Большой Мартын (село),Большой Мартын,Село,51.39417,40.02389,,,,854
952,Борщёво (Панинский район),Борщёво,Село,51.68972,40.49528,,,,357
953,Верхняя Катуховка,Верхняя Катуховка,Село,51.67192,39.93942,,1841,,447
954,Георгиевка (Воронежская область),Георгиевка,Село,51.66722,40.05111,,,,117
955,Дмитриевка (Панинский район),Дмитриевка,Село,51.7431738,40.0853776,,,,356
956,Ивановка (Панинский район),Ивановка,Село,51.65083,40.30111,,,,107
957,Ивановка 1-я (Воронежская область),Ивановка 1-я,Село,51.644201,39.9443579,,,,301
958,Икорецкое,Икорецкое,Посёлок,51.41111,39.95278,,,,1
959,Казиновка,Казиновка,Посёлок,51.64639,40.01333,XX век,,,83
960,Калининский (Воронежская область),Калининский,Посёлок,51.57583,40.32583,,,,120
961,Калмычёк (Панинский район),Калмычёк,Село,51.68556,40.11556,,,,174
962,Капканчиковые Дворики,Капканчиковые Дворики,Посёлок,51.45833,39.80306,,,,14
963,Катуховские Выселки 2-е,Катуховские Выселки 2-е,Посёлок,51.61028,40.02528,XX век,,,45
964,Кировское (Воронежская область),Кировское,Посёлок,51.53111,39.98472,,,,246
965,Козьминский (Воронежская область),Козьминский,Посёлок,51.48944,40.10694,,,,1
966,Красное (Панинский район),Красное,Село,51.74245,40.207088,,,,248
967,Красные Холмы (Воронежская область),Красные Холмы,Село,51.6224782,39.9228787,,,,231
968,Красный Лиман (Воронежская область),Красный Лиман,Село,51.52583,39.84194,,,,749
969,Красный Лиман 2-й,Красный Лиман 2-й,Село,51.44472,39.85111,,,,796
970,Криуша (Воронежская область),Криуша,Село,51.46333,40.04722,,,,725
971,Криушанские Выселки 1-е,Криушанские Выселки 1-е,Посёлок,51.44639,39.95722,,,,22
972,Майский (Воронежская область),Майский,Посёлок,51.5999918,39.9896228,,,,88
973,Малые Ясырки (Панинский район),Малые Ясырки,Посёлок,51.60306,40.08667,XX век,,,12
974,Малый Мартын (посёлок),Малый Мартын,Посёлок,51.36222,40.01361,,,,34
975,Мировка (Воронежская область),Мировка,Село,51.59028,40.08583,XX век,,,67
976,Михайловка 1-я (Воронежская область),Михайловка 1-я,Село,51.6381622,40.3820193,,,,607
977,Михайловка 2-я (Воронежская область),Михайловка 2-я,Село,51.739825,39.9909425,,,,162
978,Михайловский (Панинский район),Михайловский,Посёлок,51.61278,40.2725,,,,675
979,Мичуринский (Панинский район),Мичуринский,Посёлок,51.58639,40.21417,,,,258
980,Нащёкинские Выселки,Нащёкинские Выселки,Посёлок,51.46556,40.10417,,,,48
981,Никольское (Панинский район),Никольское,Село,51.62028,40.35889,,,,125
982,Никольское 1-е (Панинский район),Никольское 1-е,Посёлок,51.7282108,40.077331,,,,52
983,Никольское 2-е (Панинский район),Никольское 2-е,Посёлок,51.7397257,40.0594568,,,,0
984,Новоалександровка (Панинский район),Новоалександровка,Село,51.7279177,40.168333,,,,230
985,Новоданковский,Новоданковский,Посёлок,51.41333,39.89417,,,,13
986,Новоепифановка,Новоепифановка,Посёлок,51.43333,39.90806,,,,1
987,Новопокровка (Воронежская область),Новопокровка,Посёлок,51.74417,40.31306,,,,8
988,Новохреновое,Новохреновое,Село,51.5662528,39.9022056,,,,489
989,Октябрьский (Панинский район),Октябрьский,Посёлок,51.52833,40.06639,,,,806
990,Отрада (Воронежская область),Отрада,Посёлок,51.66667,40.18806,,,,116
991,Павловка (Панинский район),Павловка,Посёлок,51.48222,39.77056,,,,20
992,Пады (Воронежская область),Пады,Село,51.65583,40.45194,,,,224
993,Панино (Воронежская область),Панино,Посёлок городского типа,51.64806,40.13417,,1890,,5911
994,Партизан (Воронежская область),Партизан,Посёлок,51.52278,40.07694,,,,50
995,Первомайский (Панинский район),Первомайский,Посёлок,51.721269,40.154546,,,,259
996,Перелёшино,Перелёшино,Посёлок,51.737372,40.137442,,,,3964
997,Перелёшинский,Перелёшинский,Посёлок городского типа,51.71667,40.18333,,,,2566
998,Петровское (Панинский район),Петровское,Село,51.70528,40.21333,,,,361
999,Посёлок 3-го отделения племсовхоза «Победа Октября»,3-го отделения племсовхоза «Победа Октября»,Посёлок,51.45444,39.90111,,,,20
1000,Посёлок 5-го отделения совхоза «Михайловский»,5-го отделения совхоза «Михайловский»,Посёлок,51.64722,40.21417,,,,63
1001,Посёлок Первомайского отделения конезавода № 11,Посёлок Первомайского отделения конезавода № 11,Посёлок,51.7296862,39.9442076,,,,303
1002,Посёлок совхоза «Первомайский»,Посёлок совхоза «Первомайский»,Посёлок,51.66833,40.23694,,,,1
1003,Пылёвка,Пылёвка,Посёлок,51.48833,39.695,,,,1
1004,Росташевка,Росташевка,Посёлок,51.58222,40.05472,XX век,,,53
1005,Сергеевка (Панинский район),Сергеевка,Село,51.5594361,40.2019894,,,,217
1006,Софьинка (Панинский район),Софьинка,Село,51.61556,40.13167,1910,,,131
1007,Тарасовка (Воронежская область),Тарасовка,Посёлок,51.47417,39.78583,,,,109
1008,Тимирязевский (Воронежская область),Тимирязевский,Посёлок,51.61889,40.1875,,,,207
1009,Тойда (посёлок),Тойда,Посёлок,51.58667,40.17639,,,,277
1010,Тойда 1-я,Тойда 1-я,Посёлок,51.54861,40.13694,,,,596
1011,Тойда 2-я,Тойда 2-я,Посёлок,51.58472,40.14111,,,,82
1012,Тойденский,Тойденский,Посёлок,51.53389,40.10861,,,,166
1013,Усманские Выселки,Усманские Выселки,Село,51.48417,39.73194,,,,3 человека (2010
1014,Фёдоровка (Панинский район),Фёдоровка,Поселок,51.7584902,40.243628,,,,8
1015,Хавенка (Воронежская область),Хавенка,Посёлок,51.70667,40.12917,,,,11
1016,Хитровка (Воронежская область),Хитровка,Село,51.725818,40.28024,,,,60
1017,Чернавка (Панинский район),Чернавка,Село,51.69417,40.38139,,,,563
1018,Шанинский,Шанинский,Посёлок,51.5375,40.14333,,,,16
1019,Шарко-Бакумовка,Шарко-Бакумовка,Посёлок,51.7249544,40.0865686,,,,5
1020,Щербачёвка (Воронежская область),Щербачёвка,Посёлок,51.75361,40.30611,,,,181
1021,"Александровка (Петропавловский район, Воронежская область)",Александровка,Хутор,50.06944,41.03056,,,,0
1022,Березняги (Петропавловский район),Березняги,Село,49.98833,41.09611,,,,569
1023,Берёзовый (Воронежская область),Берёзовый,Хутор,50.18556,40.98917,,,,
1024,Бычок (Воронежская область),Бычок,Село,50.02472,40.77306,,,,72
1025,Глубокое (Воронежская область),Глубокое,Село,49.87389,40.94917,,,,28
1026,Гондарев,Гондарев,Хутор,50.06083,40.92861,,,,0
1027,Дедовка (Воронежская область),Дедовка,Село,49.8891667,40.9441667,в 1767 году,,,340
1028,Дедовочка,Дедовочка,Село,49.91139,40.93361,,,,8
1029,Замостье (Воронежская область),Замостье,Хутор,50.01583,40.82778,,,,59
1030,Индычий,Индычий,Хутор,50.2375,40.84361,,,,39
1031,Котовка (Воронежская область),Котовка,Хутор,49.96083,40.90472,,,,0
1032,Красносёловка (Воронежская область),Красносёловка,Село,50.1810917,40.8595972,,,,502 человека (2010
1033,Краснофлотское (Воронежская область),Краснофлотское,Село,50.06806,41.22194,,,,1176
1034,Новобогородицкое,Новобогородицкое,Село,50.03639,40.97944,,,,31
1035,Новотроицкое (Петропавловский район),Новотроицкое,Село,50.1302778,41.0966667,в 1737 году,,,98
1036,Новый Лиман (Воронежская область),Новый Лиман,Село,49.94361,40.91944,,,,84
1037,Огарев (хутор),Огарев,Хутор,50.10417,41.31889,,,,67
1038,Пески (Петропавловский район),Пески,Село,50.2583306,40.8769389,,,,1243
1039,"Петропавловка (Петропавловский район, Воронежская область)",Петропавловка,Село,50.09694,40.87778,,,,5250
1040,Посёлок 1-го отделения совхоза «Старокриушанский»,1-го отделения совхоза «Старокриушанский»,Посёлок,50.2425,41.01111,,,,1
1041,Посёлок совхоза «Маяк»,Совхоза «Маяк»,Посёлок,50.09139,41.15722,,,,
1042,Посёлок совхоза «Труд»,Совхоза «Труд»,Посёлок,50.15111,41.23944,,,,4
1043,Прогорелое,Прогорелое,Село,49.94611,40.8825,,,,35
1044,Рубеж (Воронежская область),Рубеж,Хутор,49.81194,41.04139,,,,
1045,Старая Криуша,Старая Криуша,Село,50.19278,41.13056,,,,2544
1046,Старая Меловая,Старая Меловая,Село,50.2788083,40.8610083,1716,,,109
1047,Фоменково (Воронежская область),Фоменково,Село,50.09,41.0533333,в 1701 году,,,77
1048,Червоно-Чехурский,Червоно-Чехурский,Хутор,50.07861,40.83333,,,,8
1049,Байчурово (село),Байчурово,Село,51.339425,42.6843917,,,,1577
1050,Взаимопомощь (Воронежская область),Взаимопомощь,Посёлок,51.35556,42.70139,,,,4
1051,Вихляевка (Воронежская область),Вихляевка,Село,51.26535,42.85663,,,,477
1052,Ильмень (Воронежская область),Ильмень,Село,51.30333,42.55444,,,,90
1053,Калмычёк (Поворинский район),Калмычёк,Посёлок,51.38556,42.8425,,,,2
1054,Каменка (Поворинский район),Каменка,Село,51.32139,42.76056,,,,97
1055,Кардаиловка,Кардаиловка,Село,51.24472,42.67472,,,,15
1056,Красное Знамя (Воронежская область),Красное Знамя,Посёлок,51.34583,42.80861,,,,4
1057,Кривченково,Кривченково,Посёлок,51.39306,42.81139,,,,6
1058,Мазурка (Воронежская область),Мазурка,Село,51.28556,42.57806,1790,,,86
1059,Моховое (Поворинский район),Моховое,Посёлок,51.16861,42.29639,,,,7
1060,Октябрьский (Поворинский район),Октябрьский,Посёлок,51.37917,42.82306,,,,98
1061,Октябрьское (Воронежская область),Октябрьское,Село,51.2346444,41.95375,,,,329
1062,Пески (Поворинский район),Пески,Село,51.25389,42.45806,,,,6410
1063,Поворино,Поворино,Город,51.2,42.25,в 1870 году,,18[1] км²,16702
1064,"Поляна (железнодорожная станция, Поворинский район)",Поляна,Станция,51.16417,42.06806,,,,6
1065,"Поляна (село, Поворинский район)",Поляна,Село,51.17333,42.00333,,,,
1066,Рождественское (Воронежская область),Рождественское,Село,51.236075,42.1692917,,,,645
1067,Самодуровка (Воронежская область),Самодуровка,Село,51.19639,42.35861,,,,66
1068,Чибизовка (Поворинский район),Чибизовка,Посёлок,51.24333,42.1175,,,,2
1069,Андреевка (Подгоренский район),Андреевка,Село,50.5044196,39.7997761,1773,,,91
1070,Басовка (Воронежская область),Басовка,Село,50.43542,40.06524,,,,3
1071,Белогорье (Воронежская область),Белогорье,Село,50.493374,40.013855,,,,171
1072,Белореченский (Воронежская область),Белореченский,Хутор,50.52472,39.65083,,,,7
1073,Берёзово (Подгоренский район),Берёзово,Село,50.61,39.54083,,,,69
1074,Большая Дмитровка (хутор),Большая Дмитровка,Хутор,50.49361,39.64778,,,,8
1075,Большая Хвощеватка,Большая Хвощеватка,Хутор,50.647298,39.724852,,,,16
1076,Большой Скорорыб,Большой Скорорыб,Хутор,50.40283,39.4919,,,,73
1077,Варваровка (Подгоренский район),Варваровка,Хутор,50.47488,39.36178,,,,25
1078,Верхний Карабут,Верхний Карабут,Село,50.55556,39.91667,,,,89
1079,Витебск (Воронежская область),Витебск,Хутор,50.42194,39.93306,,,,15
1080,Высокий Байрак,Высокий Байрак,Хутор,50.58127,39.53739,,,,
1081,Гальский,Гальский,Хутор,50.36364,39.59489,,,,7
1082,Гарусёнок,Гарусёнок,Хутор,50.59523,39.78698,,,,
1083,Голубин (Воронежская область),Голубин,Хутор,50.38806,39.67806,,,,
1084,Гончаровка (Воронежская область),Гончаровка,Село,50.52389,39.46667,,,,776
1085,Григорьевка (Подгоренский район),Григорьевка,Хутор,50.50448,39.34959,,,,6
1086,Гришевка (Воронежская область),Гришевка,Хутор,50.45925,39.49842,,,,3
1087,Даньковский (хутор),Даньковский,Хутор,50.51972,39.66583,,,,56
1088,Должик (Подгоренский район),Должик,Хутор,50.46887,39.80758,,,,64
1089,Духовое (Подгоренский район),Духовое,Хутор,50.30513,39.95641,,,,2
1090,Киров (Воронежская область),Киров,Хутор,50.30798,39.88569,,,,
1091,Кирпичи (Воронежская область),Кирпичи,Хутор,50.478124,40.025444,,,,5
1092,Колодежное,Колодежное,Село,50.634421,39.844661,,,,43
1093,Коренщина,Коренщина,Хутор,50.3943,39.73995,,,,93
1094,Костомарово (Воронежская область),Костомарово,Село,50.69333,39.76833,,,,63
1095,Костюковка (Воронежская область),Костюковка,Село,50.59631,39.69841,,,,97
1096,Кошарное (Воронежская область),Кошарное,Посёлок,50.45674,39.39285,,,,2
1097,Крамарев (Воронежская область),Крамарев,Хутор,50.65917,39.62111,,,,4
1098,Красный (Подгоренский район),Красный,Хутор,50.42033,39.9504,,,,
1099,Красный Восход (Воронежская область),Красный Восход,Поселок,50.60028,39.61972,,,,83
1100,Красный Пахарь (Подгоренский район),Красный Пахарь,Хутор,50.34414,39.8747,,,,
1101,Красюковский,Красюковский,Хутор,50.50889,39.65111,,,,86
1102,Кувшин (хутор),Кувшин,Хутор,50.3505,39.99401,,,,5
1103,Кулешовка (Подгоренский район),Кулешовка,Село,50.39451,39.70905,,,,284
1104,Куренное,Куренное,Хутор,50.34656,39.84123,,,,38
1105,Луговой (Подгоренский район),Луговой,Хутор,50.38609,39.63094,,,,38
1106,Лыково (Воронежская область),Лыково,Село,50.54835,39.78389,,,,37
1107,Малая Судьёвка,Малая Судьёвка,Хутор,50.38395,39.58751,,,,8
1108,Марс (Воронежская область),Марс,Хутор,50.36452,39.64931,,,,
1109,Медведевка (Воронежская область),Медведевка,Хутор,50.53528,39.64306,,,,
1110,Морозовка (Подгоренский район),Морозовка,Хутор,50.46722,39.89083,,,,7
1111,Никольский (Подгоренский район),Никольский,Хутор,50.38411,39.61635,,,,4
1112,Новоалександровка (Подгоренский район),Новоалександровка,Хутор,50.51343,39.33929,,,,2
1113,Новоандреевка (Воронежская область),Новоандреевка,Хутор,50.5155,39.74132,,,,
1114,Окраюшкин,Окраюшкин,Хутор,50.49345,39.58391,,,,42
1115,Опыт (посёлок),Опыт,Посёлок,50.44209,39.53945,,,,33
1116,Перевальное (Воронежская область),Перевальное,Село,50.54191,39.51232,,,,84
1117,Песчаный (Подгоренский район),Песчаный,Хутор,50.41989,39.55181,,,,2
1118,Петропавловка (Подгоренский район),Петропавловка,Хутор,50.38061,39.59764,,,,64
1119,Побединщина (Воронежская область),Побединщина,Хутор,50.38222,39.69611,,,"1,02 км²",189
1120,Погореловка (Воронежская область),Погореловка,Хутор,50.43936,39.80552,,,,62
1121,Подгоренский,Подгоренский,Посёлок городского типа,50.40444,39.65,1958,,,5634
1122,Подгорное (Подгоренский район),Подгорное,Слобода,50.43222,39.63222,,,,3785
1123,Покровка (Подгоренский район),Покровка,Хутор,50.33494,39.60674,,,,4
1124,Пробуждение (Воронежская область),Пробуждение,Посёлок,50.52849,39.59507,,,,87
1125,Репьев (хутор),Репьев,Хутор,50.44199,39.44194,,,,7
1126,Сагуны (посёлок),Сагуны,Посёлок,50.59861,39.61194,,,,46
1127,Сагуны (слобода),Сагуны,Слобода,50.59566,39.71935,,,,161
1128,Самойленко (хутор),Самойленко,Хутор,50.3727,39.514302,,,,2
1129,Саприно (село),Саприно,Село,50.37503,39.88723,,,,47
1130,Саприно (хутор),Саприно,Хутор,50.47957,39.37603,,,,3
1131,Семейка (Воронежская область),Семейка,Село,50.33012,39.97581,,,,25
1132,Сергеевка (Подгоренский район),Сергеевка,Село,50.42203,39.80681,,,,1096
1133,Серпанки,Серпанки,Хутор,50.42842,39.56073,,,,5
1134,Скорынин (хутор),Скорынин,Хутор,50.58194,39.61694,,,,3
1135,Становой (Воронежская область),Становой,Хутор,50.34009,39.85513,,,,1
1136,Степановка (Подгоренский район),Степановка,Хутор,50.44963,39.56073,,,,96
1137,Суд-Николаевка,Суд-Николаевка,Хутор,50.35253,39.61322,,,,19
1138,Сухая Россошь (хутор),Сухая Россошь,Хутор,50.605,39.60417,,,,11
1139,Терновое (Подгоренский район),Терновое,Посёлок,50.5226,39.32212,,,,20
1140,Украинская Буйловка,Украинская Буйловка,Село,50.392169,40.049251,,,,
1141,Широкий (Подгоренский район),Широкий,Хутор,50.5658,39.78904,,,,0
1142,Щедрин (Воронежская область),Щедрин,Хутор,50.47028,39.63833,,,,2
1143,Юдино (Воронежская область),Юдино,Село,50.69389,39.71,1740,,,88
1144,Айдарово (Воронежская область),Айдарово,Село,51.90512,39.291804,,,,39
1145,Архангельское (Рамонский район),Архангельское,Посёлок,51.991305,38.940016,,,,7
1146,Берёзово (Рамонский район),Берёзово,Село,51.934463,39.352544,,,,542
1147,Богданово (Воронежская область),Богданово,Деревня,51.9402771,39.20500183,,,,8
1148,Большая Верейка (село),Большая Верейка,Село,52.016653,38.930075,,,,62
1149,Большая Трещевка,Большая Трещевка,Село,51.940132,38.842881,,,,6
1150,Бор (Рамонский район),Бор,Посёлок,51.9025,39.46917,1698,,,224
1151,Борки (Воронежская область),Борки,Деревня,51.965061,39.347879,,,,8
1152,Васильевка (Рамонский район),Васильевка,Село,52.040073,38.890656,,,,
1153,Васильевские Выселки,Васильевские Выселки,Село,52.06722,38.88139,,,,
1154,Вериловка,Вериловка,Деревня,51.95786,39.110779,,,,
1155,Ветряк (Воронежская область),Ветряк,Хутор,51.771756,39.193466,,,,3
1156,Высочкино,Высочкино,Село,52.003817,38.755562,,,,5
1157,Галкино (Воронежская область),Галкино,Деревня,51.94556,39.22111,,,,6
1158,Гвоздёвка (Воронежская область),Гвоздёвка,Село,51.829393,39.096541,,,,3
1159,Глушицы (Воронежская область),Глушицы,Село,52.04,39.34389,,,,87
1160,Гнездилово (Воронежская область),Гнездилово,Деревня,51.941694,39.1250389,,,,5
1161,Горожанка (Воронежская область),Горожанка,Село,51.99833,39.12056,,1725,"1,5 км²",28
1162,Гремячье (Рамонский район),Гремячье,Село,51.97972,38.79556,XIX век,,,35
1163,Емань,Емань,Деревня,52.036306,39.198544,,,,3
1164,Каверье (Рамонский район),Каверье,Село,51.96083,38.96444,,,,1
1165,Камышовка (Воронежская область),Камышовка,Хутор,51.866323,38.808926,,,,
1166,Карачун (Воронежская область),Карачун,Село,52.01222,39.35361,,,,279
1167,Князево (Воронежская область),Князево,Деревня,52.06667,39.18861,,,,15
1168,Комсомольский (Рамонский район),Комсомольский,Посёлок,51.9853487,39.2246461,,,,26
1169,Красное (Рамонский район),Красное,Хутор,51.926378,39.2511,,,,67
1170,Кривоборье,Кривоборье,Деревня,52.04222,39.15111,,,,10
1171,Кулешовка (Рамонский район),Кулешовка,Деревня,51.92917,39.17722,,,,2
1172,Лебяжье (Рамонский район),Лебяжье,Село,51.996812,38.851294,,,,7
1173,Ломово (Воронежская область),Ломово,Село,52.054827,38.824112,,,,83
1174,Лопатки (Воронежская область),Лопатки,Село,51.982023,39.335567,после 1586,1615,,58
1175,Малая Трещевка,Малая Трещевка,Деревня,51.917672,38.831293,,,,1
1176,Медовка (Воронежская область),Медовка,Деревня,51.84306,39.1425,,,,29
1177,Моховатка,Моховатка,Деревня,51.87056,39.17861,,,,67
1178,Нелжа,Нелжа,Село,52.04056,39.385,,1615,,84
1179,Нижняя Верейка,Нижняя Верейка,Село,51.972967,39.053824,начало XVIII века,,,8
1180,Новоживотинное,Новоживоти́нное,Село,51.88889,39.16944,,,,997
1181,Новоподклетное,Новоподклетное,Деревня,51.773703,39.125085,,,,93
1182,Ольховатка (Рамонский район),Ольховатка,Деревня,51.921859,39.093997,,,,1
1183,Павловка (Рамонский район),Павловка,Село,51.992445,38.809327,,,,
1184,Панково (Рамонский район),Панково,Хутор,51.872463,39.051384,,,,
1185,Пекшево (Воронежская область),Пекшево,Село,52.02889,39.35194,,,,
1186,Петровское (Рамонский район),Петровское,Поселок,52.006575,39.19142389,,,,35
1187,Писаревка (Рамонский район),Писаревка,Деревня,52.06389,39.34972,,,,
1188,Пчельники (Воронежская область),Пчельники,Село,51.973737,39.481214,,,,6
1189,Пчельное,Пчельное,Посёлок,51.99306,38.95278,,,,1
1190,Рамонь,Рамонь,ПГТ,51.91028,39.34222,,1613,,8545
1191,Репное (Рамонский район),Репное,Деревня,51.885676,39.083921,,,,3
1192,Руда (Воронежская область),Руда,Хутор,51.956234,38.755154,,,,
1193,Русская Гвоздёвка,Русская Гвоздёвка,Село,51.81111,39.07361,,,,92
1194,Сапожок (Воронежская область),Сапожок,Хутор,51.890348,38.799849,,,,
1195,Сенное (Воронежская область),Сенное,Село,52.08361,39.33611,XVI век,1615,,6
1196,Сергеевское (Воронежская область),Сергеевское,Посёлок,51.999149,39.225602,,,,9
1197,Скляево,Скляево,Село,51.953806,39.0337611,XVIII в.,,,547
1198,Скляево 4-е,Скляево 4-е,Село,51.928972,38.999472,,,,
1199,Скляево 5-е,Скляево 5-е,Село,51.924525,39.037314,,,,
1200,Солнечный (Воронежская область),Солнечный,Нежилой посёлок,51.79889,39.21972,,,,
1201,Солнце-Дубрава,Солнце-Дубрава,Село,51.968044,39.210121,,,,4
1202,Сомово (Рамонский район),Сомово,Село,51.9386028,38.7988361,1780,,,92
1203,Староживотинное,Староживотинное,Село,51.88666,39.27509,,,,79
1204,Ступино (Рамонский район),Ступино,Село,51.97205,39.383007,,,,5
1205,Трещевка (Воронежская область),Трещевка,Село,51.884354,38.953749,,,,7
1206,Хвощеватка,Хвощеватка,Село,51.87111,39.12778,,1678,,16
1207,Чертовицы,Чертовицы,Село,51.82083,39.27361,,,,199
1208,Чистая Поляна,Чистая Поляна,Село,51.8840722,38.8221583,,,,499
1209,Ямное (Воронежская область),Ямное,Село,51.79167,39.14167,,,,309
1210,Александровка 2-я (Репьёвский район),Александровка 2-я,Хутор,51.090881,38.404518,,,,2
1211,Бутырки (Воронежская область),Бутырки,Село,51.0633316,38.61750031,,,,103
1212,Верхняя Мельница (Воронежская область),Верхняя Мельница,Хутор,51.097778,38.541698,,,,
1213,Дракино (Репьёвский район),Дракино,Хутор,51.098821,38.573838,,,,31
1214,Дружба (Репьёвский район),Дружба,Хутор,51.105634,38.457695,,,,7
1215,Екатериновка (Репьёвский район),Екатериновка,Хутор,51.103437,38.483878,,,,9
1216,Заречье (Репьёвский район),Заречье,Хутор,51.051595,38.816482,,,,3
1217,Зарослый,Зарослый,Хутор,51.095382,38.517133,,,,1
1218,Истобное (Воронежская область),Истобное,Село,51.26139,38.65944,1-я пол. XVII века,,,1369 человек (2010
1219,Какуринка (Воронежская область),Какуринка,Хутор,51.09889,38.50389,,,,
1220,Ключи (Репьёвский район),Ключи,Хутор,51.034212,38.628947,,,,
1221,Колбино (Воронежская область),Колбино,Село,51.04175,38.913718,,,,35
1222,Комсомолец (Воронежская область),Комсомолец,Посёлок,51.058503,38.675162,,,,
1223,Корнеевка (Воронежская область),Корнеевка,Хутор,51.086822,38.54214,,,,7
1224,Красная Поляна (Воронежская область),Красная Поляна,Хутор,51.106128,38.418367,,,,
1225,Краснолипье,Краснолипье,Село,51.201913,38.767837,,,,1556
1226,Красный Пахарь (Репьёвский район),Красный Пахарь,Хутор,51.171546,38.972398,,,,0
1227,Крестьянский (Воронежская область),Крестьянский,Хутор,51.079702,38.558761,,,,4
1228,Ленинский Путь (Воронежская область),Ленинский Путь,Посёлок,51.215,38.63528,,,,
1229,Новая Жизнь (Репьёвский район),Новая Жизнь,Посёлок,51.21556,38.65639,,,,4
1230,Новосолдатка (Воронежская область),Новосолдатка,Село,51.247241,38.800873,,,,928
1231,Обрез (хутор),Обрез,Хутор,51.061809,38.525419,,,,
1232,Одинцовка (Воронежская область),Одинцовка,Село,51.095059,38.437886,,,,40
1233,Осадчее (Воронежская область),Осадчее,Село,51.1561056,38.5918667,,,,40 человек (2009
1234,Платава (Воронежская область),Платава,Село,51.1790472,38.911425,,,,72
1235,Прилепы (Репьёвский район),Прилепы,Село,51.055945,38.918621,,,,81
1236,Прилужный (Воронежская область),Прилужный,Хутор,51.1699056,38.6517361,,,,95
1237,Прудовый (Воронежская область),Прудовый,Хутор,51.121453,38.793665,,,,
1238,Репье (Воронежская область),Репье,Хутор,51.152588,38.48175,,,,
1239,Репьёвка (Воронежская область),Репьёвка,Село,51.07778,38.63333,1757 год,,,5448 человек (2015
1240,Родники (Репьёвский район),Родники,Хутор,51.111732,38.420112,,,,3
1241,Россошь (Репьёвский район),Россошь,Село,51.13499832,38.51361084,,,,858
1242,Сасовка 1-я,Сасовка 1-я,Хутор,51.034935,38.890188,,,,1
1243,Сасовка 2-я,Сасовка 2-я,Хутор,51.025234,38.893463,,,,4
1244,Сердюки (Воронежская область),Сердюки,Хутор,51.044078,38.639153,,,,9
1245,Скорицкое,Скорицкое,Село,51.145859,38.812206,,,,25
1246,Токари (Воронежская область),Токари,Хутор,51.156808,38.488394,,,,
1247,Ульяновка (Репьёвский район),Ульяновка,Хутор,51.068661,38.812657,,,,4
1248,Усть-Муравлянка,Усть-Муравлянка,Село,51.044836,38.847386,,,,41
1249,Фабрицкое,Фабрицкое,Село,51.100013,38.793409,,,,22
1250,Алейниково (Воронежская область),Алейниково,Село,50.2425,39.79972,в 1780-х гг.,,,32
1251,Александровка (Россошанский район),Александровка,Село,49.98778,39.40167,,,,1187
1252,Анцелович (село),Анцелович,Село,50.14418306,39.58605611,,,,62
1253,Архиповка (Воронежская область),Архиповка,Село,50.21,39.41,,,,336
1254,Атамановка (Россошанский район),Атамановка,Хутор,49.92971389,39.96517611,,,,3
1255,Бабки (Воронежская область),Бабки,Хутор,50.234,39.723,,,,6
1256,Березняги (Россошанский район),Березняги,Хутор,50.33132306,39.77024111,,,,6 человек (2010
1257,Бещий,Бещий,Хутор,50.29129111,39.51609,,,,7 человек (2010
1258,Богоносово,Богоносово,Хутор,50.11300611,39.56881194,,,,
1259,Вакуловка (Воронежская область),Вакуловка,Хутор,50.305135,39.78520694,,,,5 человек (2010
1260,Владимировка (Россошанский район),Владимировка,Хутор,50.01288389,39.46494,,,,
1261,Водяное (Воронежская область),Водяное,Хутор,50.275,39.77,,,,0
1262,Волкодав (хутор),Волкодав,Хутор,50.03772306,39.36128306,,,, человек (2010
1263,Ворошиловский,Ворошиловский,Посёлок,50.0459139,39.6087167,,,,41
1264,Высокая Дача,Высокая Дача,Хутор,50.32562389,39.46152611,,,,6 человек (2010
1265,Голубая Криница,Голубая Криница,Хутор,50.07389,39.895,,,,38
1266,Григорьевка (Россошанский район),Григорьевка,Хутор,50.02266,39.83247611,,,,28
1267,Евстратовка (Воронежская область),Евстратовка,Село,50.13139,39.73583,,,,225
1268,Екатериновка (Россошанский район),Екатериновка,Село,50.11472194,39.35722306,,,,5
1269,Еленовка (Воронежская область),Еленовка,Село,49.948645,39.46494694,,,,50 человек (2010
1270,Ендовино (Воронежская область),Ендовино,Хутор,50.04527306,39.28506111,,,,1 человек (2010
1271,Жилино (Воронежская область),Жилино,Село,49.90306,39.41833,XVIII век,,,68 челове
1272,Ивановка (Россошанский район),Ивановка,Село,50.00722,40.03139,,,,53
1273,Иванченково,Иванченково,Хутор,50.2520333,39.7142694,,,,6
1274,Иловка (Воронежская область),Иловка,Хутор,50.2307,39.8005,,,,8
1275,Каменев (Воронежская область),Каменев,Хутор,50.24222,39.68444,,,,
1276,Кокаревка (Воронежская область),Кокаревка,Хутор,50.25991,39.58823389,,,,15 человек (2010
1277,Копани (Воронежская область),Копани,Хутор,50.05157194,39.44337111,,,,3
1278,Копанки (Россошанский район),Копанки,Хутор,50.28146,39.51273889,,,,12 человек (2010
1279,Копёнкина,Копёнкина,Посёлок,50.05197111,39.55007306,,,,1
1280,Крамаренков,Крамаренков,Хутор,49.883045,39.25483306,,,,1
1281,Кривоносово (Воронежская область),Кривоносово,Село,49.9125361,39.2532944,,,,88
1282,Криничное (Воронежская область),Криничное,Село,50.01146,39.84544806,,,,6
1283,Кулаковка (Воронежская область),Кулаковка,Село,50.22833,40.05389,,,,63 человека (2010
1284,Лебедь-Сергеевка,Лебедь-Сергеевка,Село,50.05880806,39.76283889,,,,21
1285,Легкодымовка 1-я,Легкодымовка 1-я,Хутор,50.06904306,39.25476111,,,, человек (2010
1286,Легкодымовка 2-я,Легкодымовка 2-я,Хутор,50.06340389,39.26354611,,,, человек (2010
1287,Лещенково,Лещенково,Хутор,49.95972,40.02194,,,,
1288,Лизиновка,Лизиновка,Село,50.1227806,39.4594389,,,,239
1289,Лощина (Воронежская область),Лощина,Хутор,50.13556,39.89444,,,,51 человек (2010
1290,Малая Меженка (хутор),Малая Меженка,Хутор,50.12100611,39.75143889,,,,11
1291,Малый Лес,Малый Лес,Хутор,50.06741,39.24482111,,,,5 человек (2010
1292,Мирошников (хутор),Мирошников,Хутор,50.26417,39.82361,,,,
1293,Молодёжный (Воронежская область),Молодёжный,Посёлок,50.21532694,39.62610694,,,,89 человек (2010
1294,Морозовка (Россошанский район),Морозовка,Село,50.14083,39.64028,,,,356
1295,Нагорное (Воронежская область),Нагорное,Хутор,50.15762694,39.59535694,,,,37
1296,Начало (Воронежская область),Начало,Посёлок,50.22862306,39.57483111,,,,832
1297,Нижний Карабут,Нижний Карабут,Село,50.26833,39.95778,1760 год,,,9
1298,Никоноровка (Воронежская область),Никоноровка,Хутор,50.224,39.797,,,,9
1299,Новая Калитва,Новая Калитва,Село,50.07694,40.01361,,,,325
1300,Новая Мельница (Россошанский район),Новая Мельница,Хутор,50.09219194,39.94523,,,,0
1301,Новопостояловка,Новопостояловка,Хутор,50.335,39.46222,1835,,,61 человек (2010
1302,Новосёловка (Воронежская область),Новосёловка,Хутор,50.06928806,39.36863889,,,,2 человека (2010
1303,Опытной плодово-ягодной станции,Опытной плодово-ягодной станции,Посёлок,50.1606417,39.5548028,,,,54
1304,Павловка (Россошанский район),Павловка,Хутор,50.24,39.8,,,,
1305,Первомайское (Россошанский район),Первомайское,Село,49.96609694,39.95359694,,,,62
1306,Перещепное (Россошанский район),Перещепное,Хутор,50.02439111,39.56206611,,,,6
1307,Пинчук (хутор),Пинчук,Хутор,50.14355389,39.71615389,,,,
1308,Подгорное (Россошанский район),Подгорное,Село,50.1827806,39.5247194,,,,740
1309,Поддубновка,Поддубновка,Хутор,50.05241694,39.84711,,,,
1310,Поддубное (Воронежская область),Поддубное,Село,49.89322,39.37316806,,,,23 человека (2010
1311,Подорожный (хутор),Подорожный,Хутор,50.015935,40.05737,,,,
1312,Поповка (Россошанский район),Поповка,Село,50.30848306,39.61805806,,,,507 человек (2010
1313,Посёлок совхоза «Россошанский»,Совхоза «Россошанский»,Посёлок,50.198,39.465,,,,71
1314,Пшеничный (Воронежская область),Пшеничный,Хутор,49.92459306,39.41502889,,,,
1315,Райновское,Райновское,Посёлок,50.05628611,39.66353,,,,12
1316,Россошь,Россошь,Город,50.2,39.58333,XVII век,,"59,06 км²",62625
1317,Ростовец (хутор),Ростовец,Хутор,50.02766611,39.46097806,,,,
1318,Славянка (Воронежская область),Славянка,Хутор,50.17278,39.78335694,,,,5
1319,Старая Калитва,Старая Калитва,Село,50.1436861,39.9858,,,,439 человек (2010
1320,Стефанидовка (Воронежская область),Стефанидовка,Хутор,50.29766111,39.48239389,,,,2 человека (2010
1321,Стеценково (Воронежская область),Стеценково,Село,49.96139,40.12667,,,,17
